[
  {
    "id":"ko000717",
    "name":"나이준",
    "birth":"991205",
    "phone":"01055567594",
    "location":"본관",
    "floor":"2",
    "room":"1",
    "seat":1
  },
  {
    "id":"ko001103",
    "name":"권성현",
    "birth":"830812",
    "phone":"01083087700",
    "location":"본관",
    "floor":"2",
    "room":"1",
    "seat":2
  },
  {
    "id":"ko000030",
    "name":"양환",
    "birth":"840419",
    "phone":"01055531443",
    "location":"본관",
    "floor":"2",
    "room":"1",
    "seat":3
  },
  {
    "id":"ko001263",
    "name":"이형진",
    "birth":"860831",
    "phone":"01076463038",
    "location":"본관",
    "floor":"2",
    "room":"2",
    "seat":1
  },
  {
    "id":"ko000005",
    "name":"강화진",
    "birth":"960312",
    "phone":"01049944101",
    "location":"본관",
    "floor":"2",
    "room":"2",
    "seat":2
  },
  {
    "id":"ko002206",
    "name":"조재훈",
    "birth":"840130",
    "phone":"01091504885",
    "location":"본관",
    "floor":"2",
    "room":"2",
    "seat":3
  },
  {
    "id":"ko000079",
    "name":"김기백",
    "birth":"880906",
    "phone":"01088834234",
    "location":"본관",
    "floor":"2",
    "room":"2",
    "seat":4
  },
  {
    "id":"ko000904",
    "name":"신진욱",
    "birth":"790715",
    "phone":"01087783503",
    "location":"본관",
    "floor":"2",
    "room":"2",
    "seat":5
  },
  {
    "id":"ko001150",
    "name":"이태규",
    "birth":"951116",
    "phone":"01092279568",
    "location":"본관",
    "floor":"2",
    "room":"3",
    "seat":1
  },
  {
    "id":"ko000762",
    "name":"오태경",
    "birth":"930830",
    "phone":"01042775785",
    "location":"본관",
    "floor":"2",
    "room":"3",
    "seat":2
  },
  {
    "id":"ko002209",
    "name":"진성진",
    "birth":"991003",
    "phone":"01097885546",
    "location":"본관",
    "floor":"2",
    "room":"3",
    "seat":3
  },
  {
    "id":"ko000106",
    "name":"박성균",
    "birth":"990201",
    "phone":"01088516327",
    "location":"본관",
    "floor":"2",
    "room":"3",
    "seat":4
  },
  {
    "id":"ko001157",
    "name":"안은숙",
    "birth":"810927",
    "phone":"01091849585",
    "location":"본관",
    "floor":"2",
    "room":"3",
    "seat":5
  },
  {
    "id":"ko000367",
    "name":"염대용",
    "birth":"830401",
    "phone":"01047518672",
    "location":"본관",
    "floor":"2",
    "room":"3",
    "seat":6
  },
  {
    "id":"ko001999",
    "name":"이승희",
    "birth":"000229",
    "phone":"01063098931",
    "location":"본관",
    "floor":"2",
    "room":"3",
    "seat":7
  },
  {
    "id":"ko001169",
    "name":"허유지",
    "birth":"000106",
    "phone":"01088911515",
    "location":"본관",
    "floor":"2",
    "room":"3",
    "seat":8
  },
  {
    "id":"ko000107",
    "name":"윤현석",
    "birth":"001020",
    "phone":"01082814672",
    "location":"본관",
    "floor":"2",
    "room":"3",
    "seat":9
  },
  {
    "id":"ko002097",
    "name":"서지현",
    "birth":"960603",
    "phone":"01077221046",
    "location":"본관",
    "floor":"2",
    "room":"3",
    "seat":10
  },
  {
    "id":"ko000626",
    "name":"황성준",
    "birth":"000721",
    "phone":"01049035084",
    "location":"본관",
    "floor":"2",
    "room":"3",
    "seat":11
  },
  {
    "id":"ko001536",
    "name":"조민정",
    "birth":"980507",
    "phone":"01063788421",
    "location":"본관",
    "floor":"2",
    "room":"3",
    "seat":12
  },
  {
    "id":"ko000761",
    "name":"김진성",
    "birth":"980626",
    "phone":"01041213082",
    "location":"본관",
    "floor":"2",
    "room":"3",
    "seat":13
  },
  {
    "id":"ko000996",
    "name":"장경아",
    "birth":"930106",
    "phone":"01022210106",
    "location":"본관",
    "floor":"2",
    "room":"3",
    "seat":14
  },
  {
    "id":"ko000782",
    "name":"방성욱",
    "birth":"930710",
    "phone":"01090891822",
    "location":"본관",
    "floor":"2",
    "room":"3",
    "seat":15
  },
  {
    "id":"ko001187",
    "name":"조정완",
    "birth":"990109",
    "phone":"01075576837",
    "location":"본관",
    "floor":"2",
    "room":"3",
    "seat":16
  },
  {
    "id":"ko001636",
    "name":"송민제",
    "birth":"971022",
    "phone":"01066534613",
    "location":"본관",
    "floor":"2",
    "room":"3",
    "seat":17
  },
  {
    "id":"ko002261",
    "name":"황보주희",
    "birth":"970408",
    "phone":"01033251824",
    "location":"본관",
    "floor":"2",
    "room":"3",
    "seat":18
  },
  {
    "id":"ko000856",
    "name":"이해종",
    "birth":"950211",
    "phone":"01099010345",
    "location":"본관",
    "floor":"2",
    "room":"3",
    "seat":19
  },
  {
    "id":"ko000737",
    "name":"신지혜",
    "birth":"021203",
    "phone":"01098681782",
    "location":"본관",
    "floor":"2",
    "room":"3",
    "seat":20
  },
  {
    "id":"ko001937",
    "name":"허윤",
    "birth":"900216",
    "phone":"01049475677",
    "location":"본관",
    "floor":"2",
    "room":"3",
    "seat":21
  },
  {
    "id":"ko000070",
    "name":"이채린",
    "birth":"980905",
    "phone":"01068563317",
    "location":"본관",
    "floor":"2",
    "room":"3",
    "seat":22
  },
  {
    "id":"ko001541",
    "name":"서은정",
    "birth":"950716",
    "phone":"01050934273",
    "location":"본관",
    "floor":"2",
    "room":"3",
    "seat":23
  },
  {
    "id":"ko001120",
    "name":"김혁진",
    "birth":"000516",
    "phone":"01064298198",
    "location":"본관",
    "floor":"2",
    "room":"3",
    "seat":24
  },
  {
    "id":"ko001285",
    "name":"곽현수",
    "birth":"010222",
    "phone":"01033025142",
    "location":"본관",
    "floor":"2",
    "room":"3",
    "seat":25
  },
  {
    "id":"ko001403",
    "name":"원동혁",
    "birth":"921220",
    "phone":"01056953589",
    "location":"본관",
    "floor":"2",
    "room":"4",
    "seat":1
  },
  {
    "id":"ko001197",
    "name":"박정은",
    "birth":"970203",
    "phone":"01053504678",
    "location":"본관",
    "floor":"2",
    "room":"4",
    "seat":2
  },
  {
    "id":"ko001179",
    "name":"신종원",
    "birth":"930517",
    "phone":"01033448109",
    "location":"본관",
    "floor":"2",
    "room":"4",
    "seat":3
  },
  {
    "id":"ko000727",
    "name":"이승효",
    "birth":"940726",
    "phone":"01020302034",
    "location":"본관",
    "floor":"2",
    "room":"4",
    "seat":4
  },
  {
    "id":"ko000547",
    "name":"유형일",
    "birth":"991007",
    "phone":"01062523576",
    "location":"본관",
    "floor":"2",
    "room":"4",
    "seat":5
  },
  {
    "id":"ko000254",
    "name":"김태현",
    "birth":"990715",
    "phone":"01055730273",
    "location":"본관",
    "floor":"2",
    "room":"4",
    "seat":6
  },
  {
    "id":"ko002293",
    "name":"이은주",
    "birth":"930629",
    "phone":"01032402037",
    "location":"본관",
    "floor":"2",
    "room":"4",
    "seat":7
  },
  {
    "id":"ko000556",
    "name":"송보경",
    "birth":"981205",
    "phone":"01099381259",
    "location":"본관",
    "floor":"2",
    "room":"4",
    "seat":8
  },
  {
    "id":"ko000728",
    "name":"이예나",
    "birth":"000803",
    "phone":"01059265948",
    "location":"본관",
    "floor":"2",
    "room":"4",
    "seat":9
  },
  {
    "id":"ko000852",
    "name":"이창섭",
    "birth":"990913",
    "phone":"01049195494",
    "location":"본관",
    "floor":"2",
    "room":"4",
    "seat":10
  },
  {
    "id":"ko000124",
    "name":"유주영",
    "birth":"980731",
    "phone":"01033595593",
    "location":"본관",
    "floor":"2",
    "room":"4",
    "seat":11
  },
  {
    "id":"ko001683",
    "name":"이아연",
    "birth":"020202",
    "phone":"01096291997",
    "location":"본관",
    "floor":"2",
    "room":"4",
    "seat":12
  },
  {
    "id":"ko000795",
    "name":"김예담",
    "birth":"940507",
    "phone":"01083103327",
    "location":"본관",
    "floor":"2",
    "room":"4",
    "seat":13
  },
  {
    "id":"ko000383",
    "name":"고규비",
    "birth":"970618",
    "phone":"01039451899",
    "location":"본관",
    "floor":"2",
    "room":"4",
    "seat":14
  },
  {
    "id":"ko001563",
    "name":"고진석",
    "birth":"960621",
    "phone":"01025054621",
    "location":"본관",
    "floor":"2",
    "room":"4",
    "seat":15
  },
  {
    "id":"ko001329",
    "name":"조호진",
    "birth":"980915",
    "phone":"01027839505",
    "location":"본관",
    "floor":"2",
    "room":"4",
    "seat":16
  },
  {
    "id":"ko000426",
    "name":"윤다인",
    "birth":"980507",
    "phone":"01073211536",
    "location":"본관",
    "floor":"2",
    "room":"4",
    "seat":17
  },
  {
    "id":"ko001496",
    "name":"이성희",
    "birth":"800704",
    "phone":"01093430051",
    "location":"본관",
    "floor":"2",
    "room":"4",
    "seat":18
  },
  {
    "id":"ko000484",
    "name":"박성수",
    "birth":"801211",
    "phone":"01041849482",
    "location":"본관",
    "floor":"2",
    "room":"4",
    "seat":19
  },
  {
    "id":"ko002002",
    "name":"민병일",
    "birth":"960416",
    "phone":"01041450416",
    "location":"본관",
    "floor":"2",
    "room":"4",
    "seat":20
  },
  {
    "id":"ko000568",
    "name":"김환",
    "birth":"980626",
    "phone":"01099293981",
    "location":"본관",
    "floor":"2",
    "room":"4",
    "seat":21
  },
  {
    "id":"ko001446",
    "name":"조태욱",
    "birth":"970710",
    "phone":"01055504507",
    "location":"본관",
    "floor":"2",
    "room":"4",
    "seat":22
  },
  {
    "id":"ko002149",
    "name":"장형국",
    "birth":"930518",
    "phone":"01051183432",
    "location":"본관",
    "floor":"2",
    "room":"4",
    "seat":23
  },
  {
    "id":"ko000560",
    "name":"한해은",
    "birth":"930808",
    "phone":"01031772876",
    "location":"본관",
    "floor":"2",
    "room":"4",
    "seat":24
  },
  {
    "id":"ko000731",
    "name":"김호연",
    "birth":"980923",
    "phone":"01030190923",
    "location":"본관",
    "floor":"2",
    "room":"4",
    "seat":25
  },
  {
    "id":"ko001481",
    "name":"안은정",
    "birth":"000623",
    "phone":"01096461889",
    "location":"본관",
    "floor":"2",
    "room":"5",
    "seat":1
  },
  {
    "id":"ko001747",
    "name":"김대철",
    "birth":"980318",
    "phone":"01096590382",
    "location":"본관",
    "floor":"2",
    "room":"5",
    "seat":2
  },
  {
    "id":"ko000289",
    "name":"조성빈",
    "birth":"950721",
    "phone":"01086179421",
    "location":"본관",
    "floor":"2",
    "room":"5",
    "seat":3
  },
  {
    "id":"ko001029",
    "name":"이주형",
    "birth":"900404",
    "phone":"01049477486",
    "location":"본관",
    "floor":"2",
    "room":"5",
    "seat":4
  },
  {
    "id":"ko000460",
    "name":"박지훈",
    "birth":"820411",
    "phone":"01020300411",
    "location":"본관",
    "floor":"2",
    "room":"5",
    "seat":5
  },
  {
    "id":"ko001527",
    "name":"김재홍",
    "birth":"980521",
    "phone":"01075902180",
    "location":"본관",
    "floor":"2",
    "room":"5",
    "seat":6
  },
  {
    "id":"ko001045",
    "name":"손지후",
    "birth":"780510",
    "phone":"01034558744",
    "location":"본관",
    "floor":"2",
    "room":"5",
    "seat":7
  },
  {
    "id":"ko000177",
    "name":"김정영",
    "birth":"860316",
    "phone":"01090760502",
    "location":"본관",
    "floor":"2",
    "room":"5",
    "seat":8
  },
  {
    "id":"ko001246",
    "name":"임소영",
    "birth":"851109",
    "phone":"01094273873",
    "location":"본관",
    "floor":"2",
    "room":"5",
    "seat":9
  },
  {
    "id":"ko000090",
    "name":"박상민",
    "birth":"950206",
    "phone":"01095225508",
    "location":"본관",
    "floor":"2",
    "room":"5",
    "seat":10
  },
  {
    "id":"ko002163",
    "name":"한혜림",
    "birth":"970122",
    "phone":"01088910867",
    "location":"본관",
    "floor":"2",
    "room":"5",
    "seat":11
  },
  {
    "id":"ko001834",
    "name":"박수경",
    "birth":"980610",
    "phone":"01023795155",
    "location":"본관",
    "floor":"2",
    "room":"5",
    "seat":12
  },
  {
    "id":"ko000679",
    "name":"박준형",
    "birth":"970429",
    "phone":"01048120896",
    "location":"본관",
    "floor":"2",
    "room":"5",
    "seat":13
  },
  {
    "id":"ko000298",
    "name":"유영웅",
    "birth":"980814",
    "phone":"01034237347",
    "location":"본관",
    "floor":"2",
    "room":"5",
    "seat":14
  },
  {
    "id":"ko001668",
    "name":"권유진",
    "birth":"010728",
    "phone":"01071395026",
    "location":"본관",
    "floor":"2",
    "room":"5",
    "seat":15
  },
  {
    "id":"ko000080",
    "name":"박인정",
    "birth":"990311",
    "phone":"01052839211",
    "location":"본관",
    "floor":"2",
    "room":"5",
    "seat":16
  },
  {
    "id":"ko000735",
    "name":"황동천",
    "birth":"920409",
    "phone":"01029455294",
    "location":"본관",
    "floor":"2",
    "room":"5",
    "seat":17
  },
  {
    "id":"ko000443",
    "name":"김판수",
    "birth":"750722",
    "phone":"01030334360",
    "location":"본관",
    "floor":"2",
    "room":"5",
    "seat":18
  },
  {
    "id":"ko002242",
    "name":"김재훈",
    "birth":"960527",
    "phone":"01057639690",
    "location":"본관",
    "floor":"2",
    "room":"5",
    "seat":19
  },
  {
    "id":"ko001210",
    "name":"강재복",
    "birth":"790222",
    "phone":"01034101960",
    "location":"본관",
    "floor":"2",
    "room":"5",
    "seat":20
  },
  {
    "id":"ko001812",
    "name":"손승중",
    "birth":"990129",
    "phone":"01086644067",
    "location":"본관",
    "floor":"2",
    "room":"5",
    "seat":21
  },
  {
    "id":"ko000680",
    "name":"최윤서",
    "birth":"000103",
    "phone":"01031682184",
    "location":"본관",
    "floor":"2",
    "room":"5",
    "seat":22
  },
  {
    "id":"ko000293",
    "name":"임채운",
    "birth":"970113",
    "phone":"01046560338",
    "location":"본관",
    "floor":"2",
    "room":"5",
    "seat":23
  },
  {
    "id":"ko001988",
    "name":"최지혜",
    "birth":"840111",
    "phone":"01087789272",
    "location":"본관",
    "floor":"2",
    "room":"5",
    "seat":24
  },
  {
    "id":"ko000932",
    "name":"김민주",
    "birth":"990304",
    "phone":"01094399616",
    "location":"본관",
    "floor":"2",
    "room":"5",
    "seat":25
  },
  {
    "id":"ko001218",
    "name":"송미영",
    "birth":"850222",
    "phone":"01062758337",
    "location":"본관",
    "floor":"3",
    "room":"6",
    "seat":1
  },
  {
    "id":"ko000750",
    "name":"홍용진",
    "birth":"991207",
    "phone":"01067656866",
    "location":"본관",
    "floor":"3",
    "room":"6",
    "seat":2
  },
  {
    "id":"ko000032",
    "name":"이효원",
    "birth":"971225",
    "phone":"01097074956",
    "location":"본관",
    "floor":"3",
    "room":"6",
    "seat":3
  },
  {
    "id":"ko001535",
    "name":"이주선",
    "birth":"000220",
    "phone":"01090930381",
    "location":"본관",
    "floor":"3",
    "room":"6",
    "seat":4
  },
  {
    "id":"ko000388",
    "name":"김한수",
    "birth":"900109",
    "phone":"01025797807",
    "location":"본관",
    "floor":"3",
    "room":"6",
    "seat":5
  },
  {
    "id":"ko001930",
    "name":"정해성",
    "birth":"850125",
    "phone":"01028422162",
    "location":"본관",
    "floor":"3",
    "room":"6",
    "seat":6
  },
  {
    "id":"ko002125",
    "name":"김규연",
    "birth":"881024",
    "phone":"01055812428",
    "location":"본관",
    "floor":"3",
    "room":"6",
    "seat":7
  },
  {
    "id":"ko001646",
    "name":"김다인",
    "birth":"011209",
    "phone":"01086940642",
    "location":"본관",
    "floor":"3",
    "room":"6",
    "seat":8
  },
  {
    "id":"ko001741",
    "name":"신현수",
    "birth":"000607",
    "phone":"01051134451",
    "location":"본관",
    "floor":"3",
    "room":"6",
    "seat":9
  },
  {
    "id":"ko000617",
    "name":"조정석",
    "birth":"941229",
    "phone":"01086323193",
    "location":"본관",
    "floor":"3",
    "room":"6",
    "seat":10
  },
  {
    "id":"ko000966",
    "name":"하창원",
    "birth":"790630",
    "phone":"01046315858",
    "location":"본관",
    "floor":"3",
    "room":"6",
    "seat":11
  },
  {
    "id":"ko001793",
    "name":"김정훈",
    "birth":"921216",
    "phone":"01041410615",
    "location":"본관",
    "floor":"3",
    "room":"6",
    "seat":12
  },
  {
    "id":"ko000870",
    "name":"고민수",
    "birth":"990816",
    "phone":"01048535166",
    "location":"본관",
    "floor":"3",
    "room":"6",
    "seat":13
  },
  {
    "id":"ko000784",
    "name":"한승협",
    "birth":"841211",
    "phone":"01022030281",
    "location":"본관",
    "floor":"3",
    "room":"6",
    "seat":14
  },
  {
    "id":"ko001539",
    "name":"안시연",
    "birth":"030614",
    "phone":"01045147144",
    "location":"본관",
    "floor":"3",
    "room":"6",
    "seat":15
  },
  {
    "id":"ko000340",
    "name":"이예나",
    "birth":"010203",
    "phone":"01027591920",
    "location":"본관",
    "floor":"3",
    "room":"6",
    "seat":16
  },
  {
    "id":"ko000325",
    "name":"한동규",
    "birth":"000414",
    "phone":"01057299898",
    "location":"본관",
    "floor":"3",
    "room":"6",
    "seat":17
  },
  {
    "id":"ko000386",
    "name":"이호선",
    "birth":"970415",
    "phone":"01030144861",
    "location":"본관",
    "floor":"3",
    "room":"6",
    "seat":18
  },
  {
    "id":"ko000667",
    "name":"이부상",
    "birth":"800903",
    "phone":"01056805517",
    "location":"본관",
    "floor":"3",
    "room":"6",
    "seat":19
  },
  {
    "id":"ko001593",
    "name":"김수현",
    "birth":"940903",
    "phone":"01071129493",
    "location":"본관",
    "floor":"3",
    "room":"6",
    "seat":20
  },
  {
    "id":"ko002055",
    "name":"이준영",
    "birth":"950509",
    "phone":"01074184005",
    "location":"본관",
    "floor":"3",
    "room":"6",
    "seat":21
  },
  {
    "id":"ko000141",
    "name":"최수환",
    "birth":"980802",
    "phone":"01020844582",
    "location":"본관",
    "floor":"3",
    "room":"6",
    "seat":22
  },
  {
    "id":"ko000277",
    "name":"손인태",
    "birth":"820816",
    "phone":"01099054646",
    "location":"본관",
    "floor":"3",
    "room":"6",
    "seat":23
  },
  {
    "id":"ko001046",
    "name":"이홍규",
    "birth":"950219",
    "phone":"01071794701",
    "location":"본관",
    "floor":"3",
    "room":"6",
    "seat":24
  },
  {
    "id":"ko000045",
    "name":"조병권",
    "birth":"870123",
    "phone":"01083311711",
    "location":"본관",
    "floor":"3",
    "room":"6",
    "seat":25
  },
  {
    "id":"ko001195",
    "name":"서강현",
    "birth":"920210",
    "phone":"01076508128",
    "location":"본관",
    "floor":"3",
    "room":"7",
    "seat":1
  },
  {
    "id":"ko001875",
    "name":"이한준",
    "birth":"770227",
    "phone":"01087958475",
    "location":"본관",
    "floor":"3",
    "room":"7",
    "seat":2
  },
  {
    "id":"ko001858",
    "name":"함창욱",
    "birth":"950407",
    "phone":"01067966369",
    "location":"본관",
    "floor":"3",
    "room":"7",
    "seat":3
  },
  {
    "id":"ko000451",
    "name":"민경진",
    "birth":"930302",
    "phone":"01056621714",
    "location":"본관",
    "floor":"3",
    "room":"7",
    "seat":4
  },
  {
    "id":"ko000593",
    "name":"장효은",
    "birth":"950515",
    "phone":"01085030515",
    "location":"본관",
    "floor":"3",
    "room":"7",
    "seat":5
  },
  {
    "id":"ko002038",
    "name":"임채정",
    "birth":"970904",
    "phone":"01024785572",
    "location":"본관",
    "floor":"3",
    "room":"7",
    "seat":6
  },
  {
    "id":"ko001286",
    "name":"김진홍",
    "birth":"940118",
    "phone":"01057656160",
    "location":"본관",
    "floor":"3",
    "room":"7",
    "seat":7
  },
  {
    "id":"ko002031",
    "name":"김윤철",
    "birth":"950319",
    "phone":"01067780568",
    "location":"본관",
    "floor":"3",
    "room":"7",
    "seat":8
  },
  {
    "id":"ko002020",
    "name":"성나현",
    "birth":"990731",
    "phone":"01063955146",
    "location":"본관",
    "floor":"3",
    "room":"7",
    "seat":9
  },
  {
    "id":"ko000162",
    "name":"강민규",
    "birth":"000303",
    "phone":"01082433036",
    "location":"본관",
    "floor":"3",
    "room":"7",
    "seat":10
  },
  {
    "id":"ko001052",
    "name":"문지애",
    "birth":"960330",
    "phone":"01024206927",
    "location":"본관",
    "floor":"3",
    "room":"7",
    "seat":11
  },
  {
    "id":"ko001779",
    "name":"김호영",
    "birth":"931129",
    "phone":"01093948298",
    "location":"본관",
    "floor":"3",
    "room":"7",
    "seat":12
  },
  {
    "id":"ko001504",
    "name":"최장서",
    "birth":"940902",
    "phone":"01041627507",
    "location":"본관",
    "floor":"3",
    "room":"7",
    "seat":13
  },
  {
    "id":"ko001398",
    "name":"박창현",
    "birth":"960614",
    "phone":"01095977288",
    "location":"본관",
    "floor":"3",
    "room":"7",
    "seat":14
  },
  {
    "id":"ko002092",
    "name":"윤경섭",
    "birth":"930122",
    "phone":"01041249107",
    "location":"본관",
    "floor":"3",
    "room":"7",
    "seat":15
  },
  {
    "id":"ko000769",
    "name":"이해인",
    "birth":"850507",
    "phone":"01054780712",
    "location":"본관",
    "floor":"3",
    "room":"7",
    "seat":16
  },
  {
    "id":"ko001639",
    "name":"김의겸",
    "birth":"920611",
    "phone":"01025109072",
    "location":"본관",
    "floor":"3",
    "room":"7",
    "seat":17
  },
  {
    "id":"ko002253",
    "name":"서은수",
    "birth":"921007",
    "phone":"01073076401",
    "location":"본관",
    "floor":"3",
    "room":"7",
    "seat":18
  },
  {
    "id":"ko001549",
    "name":"이진수",
    "birth":"910803",
    "phone":"01065547136",
    "location":"본관",
    "floor":"3",
    "room":"7",
    "seat":19
  },
  {
    "id":"ko001389",
    "name":"김남광",
    "birth":"990201",
    "phone":"01085639881",
    "location":"본관",
    "floor":"3",
    "room":"7",
    "seat":20
  },
  {
    "id":"ko000353",
    "name":"복누리",
    "birth":"941221",
    "phone":"01083369799",
    "location":"본관",
    "floor":"3",
    "room":"7",
    "seat":21
  },
  {
    "id":"ko000787",
    "name":"김기성",
    "birth":"811028",
    "phone":"01034545720",
    "location":"본관",
    "floor":"3",
    "room":"7",
    "seat":22
  },
  {
    "id":"ko001026",
    "name":"성연일",
    "birth":"760801",
    "phone":"01089714637",
    "location":"본관",
    "floor":"3",
    "room":"7",
    "seat":23
  },
  {
    "id":"ko000126",
    "name":"권영근",
    "birth":"830717",
    "phone":"01064903032",
    "location":"본관",
    "floor":"3",
    "room":"7",
    "seat":24
  },
  {
    "id":"ko000398",
    "name":"김용현",
    "birth":"970312",
    "phone":"01034091294",
    "location":"본관",
    "floor":"3",
    "room":"7",
    "seat":25
  },
  {
    "id":"ko001324",
    "name":"김승대",
    "birth":"960810",
    "phone":"01095538447",
    "location":"본관",
    "floor":"3",
    "room":"8",
    "seat":1
  },
  {
    "id":"ko000474",
    "name":"임경환",
    "birth":"800812",
    "phone":"01037630812",
    "location":"본관",
    "floor":"3",
    "room":"8",
    "seat":2
  },
  {
    "id":"ko001328",
    "name":"나상현",
    "birth":"980216",
    "phone":"01084223675",
    "location":"본관",
    "floor":"3",
    "room":"8",
    "seat":3
  },
  {
    "id":"ko001533",
    "name":"우수찬",
    "birth":"971215",
    "phone":"01026623929",
    "location":"본관",
    "floor":"3",
    "room":"8",
    "seat":4
  },
  {
    "id":"ko001846",
    "name":"김성한",
    "birth":"850519",
    "phone":"01044602384",
    "location":"본관",
    "floor":"3",
    "room":"8",
    "seat":5
  },
  {
    "id":"ko001796",
    "name":"이준호",
    "birth":"991023",
    "phone":"01092292864",
    "location":"본관",
    "floor":"3",
    "room":"8",
    "seat":6
  },
  {
    "id":"ko001774",
    "name":"최현웅",
    "birth":"891201",
    "phone":"01066371770",
    "location":"본관",
    "floor":"3",
    "room":"8",
    "seat":7
  },
  {
    "id":"ko000990",
    "name":"이승재",
    "birth":"860711",
    "phone":"01077301544",
    "location":"본관",
    "floor":"3",
    "room":"8",
    "seat":8
  },
  {
    "id":"ko001503",
    "name":"김승태",
    "birth":"840506",
    "phone":"01091918456",
    "location":"본관",
    "floor":"3",
    "room":"8",
    "seat":9
  },
  {
    "id":"ko001011",
    "name":"최진호",
    "birth":"830212",
    "phone":"01099922402",
    "location":"본관",
    "floor":"3",
    "room":"8",
    "seat":10
  },
  {
    "id":"ko000134",
    "name":"김소연",
    "birth":"840728",
    "phone":"01026198704",
    "location":"본관",
    "floor":"3",
    "room":"8",
    "seat":11
  },
  {
    "id":"ko000843",
    "name":"김원준",
    "birth":"960925",
    "phone":"01092677380",
    "location":"본관",
    "floor":"3",
    "room":"8",
    "seat":12
  },
  {
    "id":"ko000374",
    "name":"유도근",
    "birth":"990604",
    "phone":"01053478507",
    "location":"본관",
    "floor":"3",
    "room":"8",
    "seat":13
  },
  {
    "id":"ko000671",
    "name":"김범현",
    "birth":"880417",
    "phone":"01021225017",
    "location":"본관",
    "floor":"3",
    "room":"8",
    "seat":14
  },
  {
    "id":"ko001065",
    "name":"이정희",
    "birth":"890115",
    "phone":"01047750115",
    "location":"본관",
    "floor":"3",
    "room":"8",
    "seat":15
  },
  {
    "id":"ko001744",
    "name":"양병후",
    "birth":"921128",
    "phone":"01094489792",
    "location":"본관",
    "floor":"3",
    "room":"8",
    "seat":16
  },
  {
    "id":"ko000581",
    "name":"한동호",
    "birth":"841003",
    "phone":"01023275845",
    "location":"본관",
    "floor":"3",
    "room":"8",
    "seat":17
  },
  {
    "id":"ko001985",
    "name":"김동준",
    "birth":"930326",
    "phone":"01082858500",
    "location":"본관",
    "floor":"3",
    "room":"8",
    "seat":18
  },
  {
    "id":"ko001493",
    "name":"최종백",
    "birth":"970117",
    "phone":"01028389608",
    "location":"본관",
    "floor":"3",
    "room":"8",
    "seat":19
  },
  {
    "id":"ko002015",
    "name":"김상엽",
    "birth":"970422",
    "phone":"01093324513",
    "location":"본관",
    "floor":"3",
    "room":"8",
    "seat":20
  },
  {
    "id":"ko000607",
    "name":"박정환",
    "birth":"840618",
    "phone":"01094259761",
    "location":"본관",
    "floor":"3",
    "room":"8",
    "seat":21
  },
  {
    "id":"ko000108",
    "name":"전제홍",
    "birth":"951130",
    "phone":"01056334696",
    "location":"본관",
    "floor":"3",
    "room":"8",
    "seat":22
  },
  {
    "id":"ko000527",
    "name":"김세용",
    "birth":"970302",
    "phone":"01042451868",
    "location":"본관",
    "floor":"3",
    "room":"8",
    "seat":23
  },
  {
    "id":"ko001480",
    "name":"신민준",
    "birth":"060304",
    "phone":"01059125438",
    "location":"본관",
    "floor":"3",
    "room":"8",
    "seat":24
  },
  {
    "id":"ko000419",
    "name":"천상희",
    "birth":"910328",
    "phone":"01023034476",
    "location":"본관",
    "floor":"3",
    "room":"8",
    "seat":25
  },
  {
    "id":"ko001266",
    "name":"이성재",
    "birth":"950409",
    "phone":"01066628874",
    "location":"본관",
    "floor":"3",
    "room":"9",
    "seat":1
  },
  {
    "id":"ko001543",
    "name":"김가람",
    "birth":"000717",
    "phone":"01053066640",
    "location":"본관",
    "floor":"3",
    "room":"9",
    "seat":2
  },
  {
    "id":"ko001392",
    "name":"이주영",
    "birth":"980806",
    "phone":"01058449890",
    "location":"본관",
    "floor":"3",
    "room":"9",
    "seat":3
  },
  {
    "id":"ko000662",
    "name":"류승조",
    "birth":"710111",
    "phone":"01096780065",
    "location":"본관",
    "floor":"3",
    "room":"9",
    "seat":4
  },
  {
    "id":"ko001898",
    "name":"임주인",
    "birth":"880801",
    "phone":"01049358366",
    "location":"본관",
    "floor":"3",
    "room":"9",
    "seat":5
  },
  {
    "id":"ko002222",
    "name":"김소담",
    "birth":"980109",
    "phone":"01050278691",
    "location":"본관",
    "floor":"3",
    "room":"9",
    "seat":6
  },
  {
    "id":"ko001916",
    "name":"하경찬",
    "birth":"950915",
    "phone":"01095357693",
    "location":"본관",
    "floor":"3",
    "room":"9",
    "seat":7
  },
  {
    "id":"ko000235",
    "name":"김미소",
    "birth":"890103",
    "phone":"01030261421",
    "location":"본관",
    "floor":"3",
    "room":"9",
    "seat":8
  },
  {
    "id":"ko001369",
    "name":"권나영",
    "birth":"960105",
    "phone":"01062489627",
    "location":"본관",
    "floor":"3",
    "room":"9",
    "seat":9
  },
  {
    "id":"ko002203",
    "name":"박지현",
    "birth":"980604",
    "phone":"01076352658",
    "location":"본관",
    "floor":"3",
    "room":"9",
    "seat":10
  },
  {
    "id":"ko000789",
    "name":"김인화",
    "birth":"900105",
    "phone":"01092524589",
    "location":"본관",
    "floor":"3",
    "room":"9",
    "seat":11
  },
  {
    "id":"ko001569",
    "name":"김수현",
    "birth":"950825",
    "phone":"01099041749",
    "location":"본관",
    "floor":"3",
    "room":"9",
    "seat":12
  },
  {
    "id":"ko001281",
    "name":"김종민",
    "birth":"940620",
    "phone":"01049029878",
    "location":"본관",
    "floor":"3",
    "room":"9",
    "seat":13
  },
  {
    "id":"ko001572",
    "name":"채혜원",
    "birth":"970704",
    "phone":"01071742021",
    "location":"본관",
    "floor":"3",
    "room":"9",
    "seat":14
  },
  {
    "id":"ko000401",
    "name":"김진희",
    "birth":"930413",
    "phone":"01041204857",
    "location":"본관",
    "floor":"3",
    "room":"9",
    "seat":15
  },
  {
    "id":"ko000785",
    "name":"이정화",
    "birth":"931019",
    "phone":"01066799230",
    "location":"본관",
    "floor":"3",
    "room":"9",
    "seat":16
  },
  {
    "id":"ko000874",
    "name":"박은경",
    "birth":"921209",
    "phone":"01063049876",
    "location":"본관",
    "floor":"3",
    "room":"9",
    "seat":17
  },
  {
    "id":"ko002022",
    "name":"박현정",
    "birth":"960713",
    "phone":"01079973889",
    "location":"본관",
    "floor":"3",
    "room":"9",
    "seat":18
  },
  {
    "id":"ko001825",
    "name":"한인수",
    "birth":"801022",
    "phone":"01093956494",
    "location":"본관",
    "floor":"3",
    "room":"9",
    "seat":19
  },
  {
    "id":"ko001315",
    "name":"김은진",
    "birth":"990905",
    "phone":"01076332071",
    "location":"본관",
    "floor":"3",
    "room":"9",
    "seat":20
  },
  {
    "id":"ko001393",
    "name":"고유신",
    "birth":"960911",
    "phone":"01099886414",
    "location":"본관",
    "floor":"3",
    "room":"9",
    "seat":21
  },
  {
    "id":"ko001764",
    "name":"신하연",
    "birth":"980528",
    "phone":"01034999828",
    "location":"본관",
    "floor":"3",
    "room":"9",
    "seat":22
  },
  {
    "id":"ko001885",
    "name":"박민정",
    "birth":"920303",
    "phone":"01067697379",
    "location":"본관",
    "floor":"3",
    "room":"9",
    "seat":23
  },
  {
    "id":"ko001512",
    "name":"안가람",
    "birth":"910916",
    "phone":"01034540916",
    "location":"본관",
    "floor":"3",
    "room":"9",
    "seat":24
  },
  {
    "id":"ko002010",
    "name":"김민석",
    "birth":"891111",
    "phone":"01034202343",
    "location":"본관",
    "floor":"3",
    "room":"9",
    "seat":25
  },
  {
    "id":"ko001278",
    "name":"윤서연",
    "birth":"921205",
    "phone":"01032459113",
    "location":"본관",
    "floor":"3",
    "room":"10",
    "seat":1
  },
  {
    "id":"ko002008",
    "name":"김민서",
    "birth":"000509",
    "phone":"01067801578",
    "location":"본관",
    "floor":"3",
    "room":"10",
    "seat":2
  },
  {
    "id":"ko001714",
    "name":"송치윤",
    "birth":"850318",
    "phone":"01029523437",
    "location":"본관",
    "floor":"3",
    "room":"10",
    "seat":3
  },
  {
    "id":"ko000341",
    "name":"고동연",
    "birth":"961225",
    "phone":"01063822512",
    "location":"본관",
    "floor":"3",
    "room":"10",
    "seat":4
  },
  {
    "id":"ko000970",
    "name":"김정구",
    "birth":"910824",
    "phone":"01025293699",
    "location":"본관",
    "floor":"3",
    "room":"10",
    "seat":5
  },
  {
    "id":"ko001448",
    "name":"홍예슬",
    "birth":"960806",
    "phone":"01088400806",
    "location":"본관",
    "floor":"3",
    "room":"10",
    "seat":6
  },
  {
    "id":"ko001274",
    "name":"김기환",
    "birth":"000727",
    "phone":"01020630523",
    "location":"본관",
    "floor":"3",
    "room":"10",
    "seat":7
  },
  {
    "id":"ko001464",
    "name":"김상윤",
    "birth":"730805",
    "phone":"01094424481",
    "location":"본관",
    "floor":"3",
    "room":"10",
    "seat":8
  },
  {
    "id":"ko000142",
    "name":"강민주",
    "birth":"890404",
    "phone":"01093150406",
    "location":"본관",
    "floor":"3",
    "room":"10",
    "seat":9
  },
  {
    "id":"ko001073",
    "name":"이희수",
    "birth":"981026",
    "phone":"01091753668",
    "location":"본관",
    "floor":"3",
    "room":"10",
    "seat":10
  },
  {
    "id":"ko000359",
    "name":"구은정",
    "birth":"971227",
    "phone":"01082522358",
    "location":"본관",
    "floor":"3",
    "room":"10",
    "seat":11
  },
  {
    "id":"ko002116",
    "name":"유성미",
    "birth":"890116",
    "phone":"01094144292",
    "location":"본관",
    "floor":"3",
    "room":"10",
    "seat":12
  },
  {
    "id":"ko000056",
    "name":"성주희",
    "birth":"950113",
    "phone":"01052566089",
    "location":"본관",
    "floor":"3",
    "room":"10",
    "seat":13
  },
  {
    "id":"ko001848",
    "name":"윤다미",
    "birth":"960712",
    "phone":"01033402067",
    "location":"본관",
    "floor":"3",
    "room":"10",
    "seat":14
  },
  {
    "id":"ko000647",
    "name":"임재환",
    "birth":"950308",
    "phone":"01092477810",
    "location":"본관",
    "floor":"3",
    "room":"10",
    "seat":15
  },
  {
    "id":"ko001919",
    "name":"고형철",
    "birth":"930210",
    "phone":"01040388283",
    "location":"본관",
    "floor":"3",
    "room":"10",
    "seat":16
  },
  {
    "id":"ko000245",
    "name":"김은솔",
    "birth":"990601",
    "phone":"01096204266",
    "location":"본관",
    "floor":"3",
    "room":"10",
    "seat":17
  },
  {
    "id":"ko002259",
    "name":"서미희",
    "birth":"980831",
    "phone":"01030607167",
    "location":"본관",
    "floor":"3",
    "room":"10",
    "seat":18
  },
  {
    "id":"ko000879",
    "name":"유진평",
    "birth":"700305",
    "phone":"01037900411",
    "location":"본관",
    "floor":"3",
    "room":"10",
    "seat":19
  },
  {
    "id":"ko000288",
    "name":"장송은",
    "birth":"900528",
    "phone":"01031792539",
    "location":"본관",
    "floor":"3",
    "room":"10",
    "seat":20
  },
  {
    "id":"ko002078",
    "name":"이성희",
    "birth":"700116",
    "phone":"01042240870",
    "location":"본관",
    "floor":"3",
    "room":"10",
    "seat":21
  },
  {
    "id":"ko001925",
    "name":"서정호",
    "birth":"900526",
    "phone":"01098795410",
    "location":"본관",
    "floor":"3",
    "room":"10",
    "seat":22
  },
  {
    "id":"ko002041",
    "name":"김희은",
    "birth":"960917",
    "phone":"01086427256",
    "location":"본관",
    "floor":"3",
    "room":"10",
    "seat":23
  },
  {
    "id":"ko000276",
    "name":"노규연",
    "birth":"910722",
    "phone":"01088060215",
    "location":"본관",
    "floor":"3",
    "room":"10",
    "seat":24
  },
  {
    "id":"ko001583",
    "name":"고선우",
    "birth":"000105",
    "phone":"01085520104",
    "location":"본관",
    "floor":"3",
    "room":"10",
    "seat":25
  },
  {
    "id":"ko001185",
    "name":"신이지",
    "birth":"010305",
    "phone":"01057972475",
    "location":"본관",
    "floor":"3",
    "room":"11",
    "seat":1
  },
  {
    "id":"ko002267",
    "name":"김소희",
    "birth":"950313",
    "phone":"01049170313",
    "location":"본관",
    "floor":"3",
    "room":"11",
    "seat":2
  },
  {
    "id":"ko002146",
    "name":"이혜연",
    "birth":"830706",
    "phone":"01059401032",
    "location":"본관",
    "floor":"3",
    "room":"11",
    "seat":3
  },
  {
    "id":"ko000768",
    "name":"채정우",
    "birth":"871004",
    "phone":"01072275962",
    "location":"본관",
    "floor":"3",
    "room":"11",
    "seat":4
  },
  {
    "id":"ko000300",
    "name":"오미선",
    "birth":"870826",
    "phone":"01072315847",
    "location":"본관",
    "floor":"3",
    "room":"11",
    "seat":5
  },
  {
    "id":"ko001430",
    "name":"김수현",
    "birth":"000323",
    "phone":"01029012215",
    "location":"본관",
    "floor":"3",
    "room":"11",
    "seat":6
  },
  {
    "id":"ko001261",
    "name":"이채림",
    "birth":"010919",
    "phone":"01064065316",
    "location":"본관",
    "floor":"3",
    "room":"11",
    "seat":7
  },
  {
    "id":"ko001240",
    "name":"장시은",
    "birth":"971231",
    "phone":"01053876472",
    "location":"본관",
    "floor":"3",
    "room":"11",
    "seat":8
  },
  {
    "id":"ko001225",
    "name":"박현숙",
    "birth":"690620",
    "phone":"01041901569",
    "location":"본관",
    "floor":"3",
    "room":"11",
    "seat":9
  },
  {
    "id":"ko001581",
    "name":"김유정",
    "birth":"970327",
    "phone":"01097498688",
    "location":"본관",
    "floor":"3",
    "room":"11",
    "seat":10
  },
  {
    "id":"ko002083",
    "name":"최진영",
    "birth":"970929",
    "phone":"01055622448",
    "location":"본관",
    "floor":"3",
    "room":"11",
    "seat":11
  },
  {
    "id":"ko001126",
    "name":"이보름",
    "birth":"930206",
    "phone":"01051805847",
    "location":"본관",
    "floor":"3",
    "room":"11",
    "seat":12
  },
  {
    "id":"ko001934",
    "name":"이용진",
    "birth":"890419",
    "phone":"01089024298",
    "location":"본관",
    "floor":"3",
    "room":"11",
    "seat":13
  },
  {
    "id":"ko000528",
    "name":"안연주",
    "birth":"780909",
    "phone":"01093413687",
    "location":"본관",
    "floor":"3",
    "room":"11",
    "seat":14
  },
  {
    "id":"ko002120",
    "name":"김오자",
    "birth":"760115",
    "phone":"01089196101",
    "location":"본관",
    "floor":"3",
    "room":"11",
    "seat":15
  },
  {
    "id":"ko000521",
    "name":"장효진",
    "birth":"850227",
    "phone":"01063313223",
    "location":"본관",
    "floor":"3",
    "room":"11",
    "seat":16
  },
  {
    "id":"ko002282",
    "name":"김보성",
    "birth":"870902",
    "phone":"01084812361",
    "location":"본관",
    "floor":"3",
    "room":"11",
    "seat":17
  },
  {
    "id":"ko000444",
    "name":"김종규",
    "birth":"970308",
    "phone":"01020491327",
    "location":"본관",
    "floor":"3",
    "room":"11",
    "seat":18
  },
  {
    "id":"ko000304",
    "name":"김민범",
    "birth":"980911",
    "phone":"01042209130",
    "location":"본관",
    "floor":"3",
    "room":"11",
    "seat":19
  },
  {
    "id":"ko001494",
    "name":"이연실",
    "birth":"880829",
    "phone":"01066331309",
    "location":"본관",
    "floor":"3",
    "room":"11",
    "seat":20
  },
  {
    "id":"ko001674",
    "name":"고유경",
    "birth":"900820",
    "phone":"01026488330",
    "location":"본관",
    "floor":"3",
    "room":"11",
    "seat":21
  },
  {
    "id":"ko001360",
    "name":"김수희",
    "birth":"900110",
    "phone":"01029499001",
    "location":"본관",
    "floor":"3",
    "room":"11",
    "seat":22
  },
  {
    "id":"ko000199",
    "name":"현은희",
    "birth":"930223",
    "phone":"01022495003",
    "location":"본관",
    "floor":"3",
    "room":"11",
    "seat":23
  },
  {
    "id":"ko000479",
    "name":"최윤식",
    "birth":"920111",
    "phone":"01037933400",
    "location":"본관",
    "floor":"3",
    "room":"11",
    "seat":24
  },
  {
    "id":"ko000650",
    "name":"고민정",
    "birth":"000620",
    "phone":"01041790792",
    "location":"본관",
    "floor":"3",
    "room":"11",
    "seat":25
  },
  {
    "id":"ko002045",
    "name":"강정민",
    "birth":"991119",
    "phone":"01025342922",
    "location":"본관",
    "floor":"3",
    "room":"12",
    "seat":1
  },
  {
    "id":"ko000746",
    "name":"김향진",
    "birth":"930406",
    "phone":"01045154495",
    "location":"본관",
    "floor":"3",
    "room":"12",
    "seat":2
  },
  {
    "id":"ko001432",
    "name":"윤미라",
    "birth":"830713",
    "phone":"01087034644",
    "location":"본관",
    "floor":"3",
    "room":"12",
    "seat":3
  },
  {
    "id":"ko000253",
    "name":"이진숙",
    "birth":"800524",
    "phone":"01037807457",
    "location":"본관",
    "floor":"3",
    "room":"12",
    "seat":4
  },
  {
    "id":"ko001228",
    "name":"장혁재",
    "birth":"980407",
    "phone":"01032695236",
    "location":"본관",
    "floor":"3",
    "room":"12",
    "seat":5
  },
  {
    "id":"ko000102",
    "name":"오준호",
    "birth":"990323",
    "phone":"01071031481",
    "location":"본관",
    "floor":"3",
    "room":"12",
    "seat":6
  },
  {
    "id":"ko000128",
    "name":"김정현",
    "birth":"951223",
    "phone":"01043454627",
    "location":"본관",
    "floor":"3",
    "room":"12",
    "seat":7
  },
  {
    "id":"ko002258",
    "name":"이제관",
    "birth":"800212",
    "phone":"01073117945",
    "location":"본관",
    "floor":"3",
    "room":"12",
    "seat":8
  },
  {
    "id":"ko002317",
    "name":"송희준",
    "birth":"950618",
    "phone":"01083259458",
    "location":"본관",
    "floor":"3",
    "room":"12",
    "seat":9
  },
  {
    "id":"ko000964",
    "name":"박윤정",
    "birth":"810313",
    "phone":"01036908362",
    "location":"본관",
    "floor":"3",
    "room":"12",
    "seat":10
  },
  {
    "id":"ko000706",
    "name":"현희은",
    "birth":"960115",
    "phone":"01067679442",
    "location":"본관",
    "floor":"3",
    "room":"12",
    "seat":11
  },
  {
    "id":"ko001843",
    "name":"양예지",
    "birth":"990402",
    "phone":"01036992055",
    "location":"본관",
    "floor":"3",
    "room":"12",
    "seat":12
  },
  {
    "id":"ko000240",
    "name":"김민수",
    "birth":"890430",
    "phone":"01086960598",
    "location":"본관",
    "floor":"3",
    "room":"12",
    "seat":13
  },
  {
    "id":"ko001912",
    "name":"정가은",
    "birth":"960508",
    "phone":"01084430982",
    "location":"본관",
    "floor":"3",
    "room":"12",
    "seat":14
  },
  {
    "id":"ko002198",
    "name":"석민범",
    "birth":"941015",
    "phone":"01098387318",
    "location":"본관",
    "floor":"3",
    "room":"12",
    "seat":15
  },
  {
    "id":"ko000223",
    "name":"양다운",
    "birth":"901202",
    "phone":"01045955623",
    "location":"본관",
    "floor":"3",
    "room":"12",
    "seat":16
  },
  {
    "id":"ko000332",
    "name":"김효섭",
    "birth":"790720",
    "phone":"01024733437",
    "location":"본관",
    "floor":"3",
    "room":"12",
    "seat":17
  },
  {
    "id":"ko002042",
    "name":"김민우",
    "birth":"960508",
    "phone":"01099730724",
    "location":"본관",
    "floor":"3",
    "room":"12",
    "seat":18
  },
  {
    "id":"ko001872",
    "name":"박재형",
    "birth":"930311",
    "phone":"01051630395",
    "location":"본관",
    "floor":"3",
    "room":"12",
    "seat":19
  },
  {
    "id":"ko002238",
    "name":"이지혜",
    "birth":"970414",
    "phone":"01090349704",
    "location":"본관",
    "floor":"3",
    "room":"12",
    "seat":20
  },
  {
    "id":"ko000462",
    "name":"권혁태",
    "birth":"910924",
    "phone":"01029272808",
    "location":"본관",
    "floor":"3",
    "room":"12",
    "seat":21
  },
  {
    "id":"ko001409",
    "name":"최윤탁",
    "birth":"890621",
    "phone":"01022366341",
    "location":"본관",
    "floor":"3",
    "room":"12",
    "seat":22
  },
  {
    "id":"ko000534",
    "name":"최승휴",
    "birth":"790514",
    "phone":"01094013390",
    "location":"본관",
    "floor":"3",
    "room":"12",
    "seat":23
  },
  {
    "id":"ko002000",
    "name":"민선홍",
    "birth":"890203",
    "phone":"01031375268",
    "location":"본관",
    "floor":"3",
    "room":"12",
    "seat":24
  },
  {
    "id":"ko000602",
    "name":"엄기인",
    "birth":"800126",
    "phone":"01072222569",
    "location":"본관",
    "floor":"3",
    "room":"12",
    "seat":25
  },
  {
    "id":"ko001248",
    "name":"정은주",
    "birth":"860720",
    "phone":"01029292720",
    "location":"본관",
    "floor":"4",
    "room":"13",
    "seat":1
  },
  {
    "id":"ko000502",
    "name":"정수만",
    "birth":"801119",
    "phone":"01047534181",
    "location":"본관",
    "floor":"4",
    "room":"13",
    "seat":2
  },
  {
    "id":"ko000435",
    "name":"김승환",
    "birth":"021223",
    "phone":"01089667988",
    "location":"본관",
    "floor":"4",
    "room":"13",
    "seat":3
  },
  {
    "id":"ko002217",
    "name":"이수지",
    "birth":"950807",
    "phone":"01040998393",
    "location":"본관",
    "floor":"4",
    "room":"13",
    "seat":4
  },
  {
    "id":"ko001854",
    "name":"정재연",
    "birth":"831002",
    "phone":"01050138932",
    "location":"본관",
    "floor":"4",
    "room":"13",
    "seat":5
  },
  {
    "id":"ko002223",
    "name":"최정인",
    "birth":"970721",
    "phone":"01056304918",
    "location":"본관",
    "floor":"4",
    "room":"13",
    "seat":6
  },
  {
    "id":"ko001754",
    "name":"윤여헌",
    "birth":"861023",
    "phone":"01046904148",
    "location":"본관",
    "floor":"4",
    "room":"13",
    "seat":7
  },
  {
    "id":"ko000955",
    "name":"김지원",
    "birth":"830815",
    "phone":"01031363383",
    "location":"본관",
    "floor":"4",
    "room":"13",
    "seat":8
  },
  {
    "id":"ko001365",
    "name":"안준성",
    "birth":"941205",
    "phone":"01020455306",
    "location":"본관",
    "floor":"4",
    "room":"13",
    "seat":9
  },
  {
    "id":"ko000695",
    "name":"권순범",
    "birth":"861022",
    "phone":"01033249840",
    "location":"본관",
    "floor":"4",
    "room":"13",
    "seat":10
  },
  {
    "id":"ko001121",
    "name":"고윤",
    "birth":"971208",
    "phone":"01024061373",
    "location":"본관",
    "floor":"4",
    "room":"13",
    "seat":11
  },
  {
    "id":"ko000466",
    "name":"황재윤",
    "birth":"840227",
    "phone":"01037969340",
    "location":"본관",
    "floor":"4",
    "room":"13",
    "seat":12
  },
  {
    "id":"ko001956",
    "name":"김혜련",
    "birth":"920605",
    "phone":"01097311992",
    "location":"본관",
    "floor":"4",
    "room":"13",
    "seat":13
  },
  {
    "id":"ko001354",
    "name":"김혜림",
    "birth":"980302",
    "phone":"01063984346",
    "location":"본관",
    "floor":"4",
    "room":"13",
    "seat":14
  },
  {
    "id":"ko001005",
    "name":"노윤정",
    "birth":"971118",
    "phone":"01073928974",
    "location":"본관",
    "floor":"4",
    "room":"13",
    "seat":15
  },
  {
    "id":"ko000057",
    "name":"김형건",
    "birth":"941128",
    "phone":"01051633695",
    "location":"본관",
    "floor":"4",
    "room":"13",
    "seat":16
  },
  {
    "id":"ko001620",
    "name":"이동헌",
    "birth":"920622",
    "phone":"01040309206",
    "location":"본관",
    "floor":"4",
    "room":"13",
    "seat":17
  },
  {
    "id":"ko000849",
    "name":"이은희",
    "birth":"821125",
    "phone":"01096728744",
    "location":"본관",
    "floor":"4",
    "room":"13",
    "seat":18
  },
  {
    "id":"ko000415",
    "name":"류연걸",
    "birth":"000929",
    "phone":"01091780047",
    "location":"본관",
    "floor":"4",
    "room":"13",
    "seat":19
  },
  {
    "id":"ko000962",
    "name":"박용운",
    "birth":"881127",
    "phone":"01033933579",
    "location":"본관",
    "floor":"4",
    "room":"13",
    "seat":20
  },
  {
    "id":"ko001039",
    "name":"박선하",
    "birth":"940603",
    "phone":"01057921535",
    "location":"본관",
    "floor":"4",
    "room":"13",
    "seat":21
  },
  {
    "id":"ko000912",
    "name":"김도윤",
    "birth":"890727",
    "phone":"01062661469",
    "location":"본관",
    "floor":"4",
    "room":"13",
    "seat":22
  },
  {
    "id":"ko000381",
    "name":"전필규",
    "birth":"900214",
    "phone":"01038088375",
    "location":"본관",
    "floor":"4",
    "room":"13",
    "seat":23
  },
  {
    "id":"ko001405",
    "name":"양수경",
    "birth":"980723",
    "phone":"01045249507",
    "location":"본관",
    "floor":"4",
    "room":"13",
    "seat":24
  },
  {
    "id":"ko000516",
    "name":"한현석",
    "birth":"900302",
    "phone":"01020529032",
    "location":"본관",
    "floor":"4",
    "room":"13",
    "seat":25
  },
  {
    "id":"ko001230",
    "name":"박지수",
    "birth":"911107",
    "phone":"01099271157",
    "location":"본관",
    "floor":"4",
    "room":"14",
    "seat":1
  },
  {
    "id":"ko000286",
    "name":"정세영",
    "birth":"901010",
    "phone":"01042106037",
    "location":"본관",
    "floor":"4",
    "room":"14",
    "seat":2
  },
  {
    "id":"ko000239",
    "name":"강남영",
    "birth":"890816",
    "phone":"01053201608",
    "location":"본관",
    "floor":"4",
    "room":"14",
    "seat":3
  },
  {
    "id":"ko002043",
    "name":"박병섭",
    "birth":"830801",
    "phone":"01090942784",
    "location":"본관",
    "floor":"4",
    "room":"14",
    "seat":4
  },
  {
    "id":"ko001877",
    "name":"임한솔",
    "birth":"980923",
    "phone":"01093133293",
    "location":"본관",
    "floor":"4",
    "room":"14",
    "seat":5
  },
  {
    "id":"ko000335",
    "name":"서효진",
    "birth":"981025",
    "phone":"01049275792",
    "location":"본관",
    "floor":"4",
    "room":"14",
    "seat":6
  },
  {
    "id":"ko001757",
    "name":"송종호",
    "birth":"760824",
    "phone":"01036614319",
    "location":"본관",
    "floor":"4",
    "room":"14",
    "seat":7
  },
  {
    "id":"ko001041",
    "name":"김승주",
    "birth":"950111",
    "phone":"01058749833",
    "location":"본관",
    "floor":"4",
    "room":"14",
    "seat":8
  },
  {
    "id":"ko000834",
    "name":"임지윤",
    "birth":"981224",
    "phone":"01023053579",
    "location":"본관",
    "floor":"4",
    "room":"14",
    "seat":9
  },
  {
    "id":"ko000914",
    "name":"이슬애",
    "birth":"900206",
    "phone":"01029029056",
    "location":"본관",
    "floor":"4",
    "room":"14",
    "seat":10
  },
  {
    "id":"ko000099",
    "name":"김태곤",
    "birth":"860704",
    "phone":"01050915396",
    "location":"본관",
    "floor":"4",
    "room":"14",
    "seat":11
  },
  {
    "id":"ko002024",
    "name":"박소현",
    "birth":"970322",
    "phone":"01071866039",
    "location":"본관",
    "floor":"4",
    "room":"14",
    "seat":12
  },
  {
    "id":"ko001995",
    "name":"정지원",
    "birth":"971002",
    "phone":"01093084022",
    "location":"본관",
    "floor":"4",
    "room":"14",
    "seat":13
  },
  {
    "id":"ko001429",
    "name":"김덕남",
    "birth":"671015",
    "phone":"01062288423",
    "location":"본관",
    "floor":"4",
    "room":"14",
    "seat":14
  },
  {
    "id":"ko001469",
    "name":"고수연",
    "birth":"920310",
    "phone":"01086382983",
    "location":"본관",
    "floor":"4",
    "room":"14",
    "seat":15
  },
  {
    "id":"ko000261",
    "name":"이미연",
    "birth":"930411",
    "phone":"01039596021",
    "location":"본관",
    "floor":"4",
    "room":"14",
    "seat":16
  },
  {
    "id":"ko000658",
    "name":"임희정",
    "birth":"760203",
    "phone":"01088883167",
    "location":"본관",
    "floor":"4",
    "room":"14",
    "seat":17
  },
  {
    "id":"ko000017",
    "name":"방희연",
    "birth":"941213",
    "phone":"01022889189",
    "location":"본관",
    "floor":"4",
    "room":"14",
    "seat":18
  },
  {
    "id":"ko000149",
    "name":"조진영",
    "birth":"950220",
    "phone":"01034240220",
    "location":"본관",
    "floor":"4",
    "room":"14",
    "seat":19
  },
  {
    "id":"ko001262",
    "name":"신세화",
    "birth":"871221",
    "phone":"01086150152",
    "location":"본관",
    "floor":"4",
    "room":"14",
    "seat":20
  },
  {
    "id":"ko000255",
    "name":"김준영",
    "birth":"890925",
    "phone":"01047195662",
    "location":"본관",
    "floor":"4",
    "room":"14",
    "seat":21
  },
  {
    "id":"ko002001",
    "name":"박민성",
    "birth":"920409",
    "phone":"01038473499",
    "location":"본관",
    "floor":"4",
    "room":"14",
    "seat":22
  },
  {
    "id":"ko001164",
    "name":"조용준",
    "birth":"970614",
    "phone":"01040512048",
    "location":"본관",
    "floor":"4",
    "room":"14",
    "seat":23
  },
  {
    "id":"ko000551",
    "name":"육희주",
    "birth":"880309",
    "phone":"01099224366",
    "location":"본관",
    "floor":"4",
    "room":"14",
    "seat":24
  },
  {
    "id":"ko001426",
    "name":"윤승희",
    "birth":"790727",
    "phone":"01033232327",
    "location":"본관",
    "floor":"4",
    "room":"14",
    "seat":25
  },
  {
    "id":"ko001622",
    "name":"문서영",
    "birth":"810203",
    "phone":"01028950308",
    "location":"본관",
    "floor":"4",
    "room":"15",
    "seat":1
  },
  {
    "id":"ko000123",
    "name":"이인선",
    "birth":"850308",
    "phone":"01057060878",
    "location":"본관",
    "floor":"4",
    "room":"15",
    "seat":2
  },
  {
    "id":"ko000554",
    "name":"원현철",
    "birth":"861208",
    "phone":"01072275480",
    "location":"본관",
    "floor":"4",
    "room":"15",
    "seat":3
  },
  {
    "id":"ko001202",
    "name":"진혜민",
    "birth":"890519",
    "phone":"01035587879",
    "location":"본관",
    "floor":"4",
    "room":"15",
    "seat":4
  },
  {
    "id":"ko000338",
    "name":"박자영",
    "birth":"881208",
    "phone":"01033641629",
    "location":"본관",
    "floor":"4",
    "room":"15",
    "seat":5
  },
  {
    "id":"ko002153",
    "name":"황혜정",
    "birth":"850715",
    "phone":"01098581187",
    "location":"본관",
    "floor":"4",
    "room":"15",
    "seat":6
  },
  {
    "id":"ko002292",
    "name":"김혜선",
    "birth":"760320",
    "phone":"01031564782",
    "location":"본관",
    "floor":"4",
    "room":"15",
    "seat":7
  },
  {
    "id":"ko002069",
    "name":"박진화",
    "birth":"911230",
    "phone":"01046916230",
    "location":"본관",
    "floor":"4",
    "room":"15",
    "seat":8
  },
  {
    "id":"ko000838",
    "name":"심아름",
    "birth":"920428",
    "phone":"01027328738",
    "location":"본관",
    "floor":"4",
    "room":"15",
    "seat":9
  },
  {
    "id":"ko001960",
    "name":"강준안",
    "birth":"960309",
    "phone":"01028861157",
    "location":"본관",
    "floor":"4",
    "room":"15",
    "seat":10
  },
  {
    "id":"ko000778",
    "name":"문채이",
    "birth":"960515",
    "phone":"01055153049",
    "location":"본관",
    "floor":"4",
    "room":"15",
    "seat":11
  },
  {
    "id":"ko001991",
    "name":"박지영",
    "birth":"970819",
    "phone":"01046614829",
    "location":"본관",
    "floor":"4",
    "room":"15",
    "seat":12
  },
  {
    "id":"ko001204",
    "name":"김영두",
    "birth":"941120",
    "phone":"01033751341",
    "location":"본관",
    "floor":"4",
    "room":"15",
    "seat":13
  },
  {
    "id":"ko001787",
    "name":"백승엽",
    "birth":"920211",
    "phone":"01072261979",
    "location":"본관",
    "floor":"4",
    "room":"15",
    "seat":14
  },
  {
    "id":"ko000373",
    "name":"이경남",
    "birth":"910314",
    "phone":"01082140205",
    "location":"본관",
    "floor":"4",
    "room":"15",
    "seat":15
  },
  {
    "id":"ko000757",
    "name":"박해석",
    "birth":"800217",
    "phone":"01028339975",
    "location":"본관",
    "floor":"4",
    "room":"15",
    "seat":16
  },
  {
    "id":"ko000400",
    "name":"한인수",
    "birth":"790125",
    "phone":"01028456891",
    "location":"본관",
    "floor":"4",
    "room":"15",
    "seat":17
  },
  {
    "id":"ko000478",
    "name":"이승원",
    "birth":"910404",
    "phone":"01050468647",
    "location":"본관",
    "floor":"4",
    "room":"15",
    "seat":18
  },
  {
    "id":"ko001397",
    "name":"이슬기",
    "birth":"941024",
    "phone":"01072430084",
    "location":"본관",
    "floor":"4",
    "room":"15",
    "seat":19
  },
  {
    "id":"ko000040",
    "name":"백정은",
    "birth":"830111",
    "phone":"01085015782",
    "location":"본관",
    "floor":"4",
    "room":"15",
    "seat":20
  },
  {
    "id":"ko001147",
    "name":"박태희",
    "birth":"880218",
    "phone":"01099296023",
    "location":"본관",
    "floor":"4",
    "room":"15",
    "seat":21
  },
  {
    "id":"ko001038",
    "name":"황보현",
    "birth":"960314",
    "phone":"01051073519",
    "location":"본관",
    "floor":"4",
    "room":"15",
    "seat":22
  },
  {
    "id":"ko000190",
    "name":"박혜지",
    "birth":"980501",
    "phone":"01033849895",
    "location":"본관",
    "floor":"4",
    "room":"15",
    "seat":23
  },
  {
    "id":"ko000205",
    "name":"하나영",
    "birth":"961223",
    "phone":"01036701927",
    "location":"본관",
    "floor":"4",
    "room":"15",
    "seat":24
  },
  {
    "id":"ko001602",
    "name":"김보경",
    "birth":"000208",
    "phone":"01025219489",
    "location":"본관",
    "floor":"4",
    "room":"15",
    "seat":25
  },
  {
    "id":"ko000170",
    "name":"허준",
    "birth":"960718",
    "phone":"01066903635",
    "location":"본관",
    "floor":"4",
    "room":"16",
    "seat":1
  },
  {
    "id":"ko001534",
    "name":"강미경",
    "birth":"840318",
    "phone":"01094013335",
    "location":"본관",
    "floor":"4",
    "room":"16",
    "seat":2
  },
  {
    "id":"ko000973",
    "name":"이재훈",
    "birth":"880621",
    "phone":"01074180759",
    "location":"본관",
    "floor":"4",
    "room":"16",
    "seat":3
  },
  {
    "id":"ko000862",
    "name":"정진현",
    "birth":"971108",
    "phone":"01075507465",
    "location":"본관",
    "floor":"4",
    "room":"16",
    "seat":4
  },
  {
    "id":"ko001032",
    "name":"박수진",
    "birth":"930929",
    "phone":"01042702974",
    "location":"본관",
    "floor":"4",
    "room":"16",
    "seat":5
  },
  {
    "id":"ko002320",
    "name":"김치현",
    "birth":"760731",
    "phone":"01085473257",
    "location":"본관",
    "floor":"4",
    "room":"16",
    "seat":6
  },
  {
    "id":"ko000485",
    "name":"황지백",
    "birth":"960604",
    "phone":"01043445183",
    "location":"본관",
    "floor":"4",
    "room":"16",
    "seat":7
  },
  {
    "id":"ko002093",
    "name":"최은하",
    "birth":"970120",
    "phone":"01087797068",
    "location":"본관",
    "floor":"4",
    "room":"16",
    "seat":8
  },
  {
    "id":"ko001015",
    "name":"한도경",
    "birth":"850926",
    "phone":"01048110332",
    "location":"본관",
    "floor":"4",
    "room":"16",
    "seat":9
  },
  {
    "id":"ko002165",
    "name":"김성근",
    "birth":"980919",
    "phone":"01085564029",
    "location":"본관",
    "floor":"4",
    "room":"16",
    "seat":10
  },
  {
    "id":"ko001900",
    "name":"여윤진",
    "birth":"790817",
    "phone":"01085707868",
    "location":"본관",
    "floor":"4",
    "room":"16",
    "seat":11
  },
  {
    "id":"ko000326",
    "name":"최민지",
    "birth":"900320",
    "phone":"01040783254",
    "location":"본관",
    "floor":"4",
    "room":"16",
    "seat":12
  },
  {
    "id":"ko000136",
    "name":"김범준",
    "birth":"940629",
    "phone":"01066934043",
    "location":"본관",
    "floor":"4",
    "room":"16",
    "seat":13
  },
  {
    "id":"ko000876",
    "name":"윤지영",
    "birth":"860906",
    "phone":"01072322639",
    "location":"본관",
    "floor":"4",
    "room":"16",
    "seat":14
  },
  {
    "id":"ko000714",
    "name":"권민선",
    "birth":"950621",
    "phone":"01093426696",
    "location":"본관",
    "floor":"4",
    "room":"16",
    "seat":15
  },
  {
    "id":"ko001055",
    "name":"박지예",
    "birth":"000119",
    "phone":"01075538654",
    "location":"본관",
    "floor":"4",
    "room":"16",
    "seat":16
  },
  {
    "id":"ko002167",
    "name":"이희규",
    "birth":"931019",
    "phone":"01091008327",
    "location":"본관",
    "floor":"4",
    "room":"16",
    "seat":17
  },
  {
    "id":"ko001213",
    "name":"이샛별",
    "birth":"930903",
    "phone":"01021400903",
    "location":"본관",
    "floor":"4",
    "room":"16",
    "seat":18
  },
  {
    "id":"ko000567",
    "name":"장현우",
    "birth":"980709",
    "phone":"01068106780",
    "location":"본관",
    "floor":"4",
    "room":"16",
    "seat":19
  },
  {
    "id":"ko001111",
    "name":"진향림",
    "birth":"900915",
    "phone":"01041500264",
    "location":"본관",
    "floor":"4",
    "room":"16",
    "seat":20
  },
  {
    "id":"ko002234",
    "name":"문승주",
    "birth":"770907",
    "phone":"01022227650",
    "location":"본관",
    "floor":"4",
    "room":"16",
    "seat":21
  },
  {
    "id":"ko000947",
    "name":"함명희",
    "birth":"781106",
    "phone":"01031032400",
    "location":"본관",
    "floor":"4",
    "room":"16",
    "seat":22
  },
  {
    "id":"ko002315",
    "name":"최승여",
    "birth":"750326",
    "phone":"01089524534",
    "location":"본관",
    "floor":"4",
    "room":"16",
    "seat":23
  },
  {
    "id":"ko001638",
    "name":"김다혜",
    "birth":"901009",
    "phone":"01055970797",
    "location":"본관",
    "floor":"4",
    "room":"16",
    "seat":24
  },
  {
    "id":"ko000269",
    "name":"허민재",
    "birth":"901219",
    "phone":"01088655902",
    "location":"본관",
    "floor":"4",
    "room":"16",
    "seat":25
  },
  {
    "id":"ko002191",
    "name":"김민회",
    "birth":"910123",
    "phone":"01098946217",
    "location":"본관",
    "floor":"4",
    "room":"17",
    "seat":1
  },
  {
    "id":"ko001586",
    "name":"임소현",
    "birth":"940407",
    "phone":"01091071321",
    "location":"본관",
    "floor":"4",
    "room":"17",
    "seat":2
  },
  {
    "id":"ko000752",
    "name":"김종배",
    "birth":"930528",
    "phone":"01051145658",
    "location":"본관",
    "floor":"4",
    "room":"17",
    "seat":3
  },
  {
    "id":"ko002314",
    "name":"김학진",
    "birth":"980909",
    "phone":"01076084520",
    "location":"본관",
    "floor":"4",
    "room":"17",
    "seat":4
  },
  {
    "id":"ko001127",
    "name":"박수빈",
    "birth":"980822",
    "phone":"01055916214",
    "location":"본관",
    "floor":"4",
    "room":"17",
    "seat":5
  },
  {
    "id":"ko000906",
    "name":"이정란",
    "birth":"920504",
    "phone":"01042292481",
    "location":"본관",
    "floor":"4",
    "room":"17",
    "seat":6
  },
  {
    "id":"ko001963",
    "name":"김승원",
    "birth":"990414",
    "phone":"01089209698",
    "location":"본관",
    "floor":"4",
    "room":"17",
    "seat":7
  },
  {
    "id":"ko001904",
    "name":"이형균",
    "birth":"780526",
    "phone":"01036414804",
    "location":"본관",
    "floor":"4",
    "room":"17",
    "seat":8
  },
  {
    "id":"ko000172",
    "name":"최범식",
    "birth":"990630",
    "phone":"01055265347",
    "location":"본관",
    "floor":"4",
    "room":"17",
    "seat":9
  },
  {
    "id":"ko001194",
    "name":"김유빈",
    "birth":"991119",
    "phone":"01075665311",
    "location":"본관",
    "floor":"4",
    "room":"17",
    "seat":10
  },
  {
    "id":"ko001667",
    "name":"이나래",
    "birth":"890920",
    "phone":"01063311531",
    "location":"본관",
    "floor":"4",
    "room":"17",
    "seat":11
  },
  {
    "id":"ko001443",
    "name":"김아름",
    "birth":"950807",
    "phone":"01044329867",
    "location":"본관",
    "floor":"4",
    "room":"17",
    "seat":12
  },
  {
    "id":"ko001645",
    "name":"변원광",
    "birth":"900823",
    "phone":"01033100060",
    "location":"본관",
    "floor":"4",
    "room":"17",
    "seat":13
  },
  {
    "id":"ko000687",
    "name":"박진우",
    "birth":"000227",
    "phone":"01056706599",
    "location":"본관",
    "floor":"4",
    "room":"17",
    "seat":14
  },
  {
    "id":"ko001828",
    "name":"김나경",
    "birth":"011024",
    "phone":"01086695944",
    "location":"본관",
    "floor":"4",
    "room":"17",
    "seat":15
  },
  {
    "id":"ko000764",
    "name":"이재인",
    "birth":"930830",
    "phone":"01062658302",
    "location":"본관",
    "floor":"4",
    "room":"17",
    "seat":16
  },
  {
    "id":"ko001256",
    "name":"김지혜",
    "birth":"910902",
    "phone":"01029399089",
    "location":"본관",
    "floor":"4",
    "room":"17",
    "seat":17
  },
  {
    "id":"ko000297",
    "name":"김다혜",
    "birth":"900731",
    "phone":"01051453373",
    "location":"본관",
    "floor":"4",
    "room":"17",
    "seat":18
  },
  {
    "id":"ko001964",
    "name":"도윤지",
    "birth":"830531",
    "phone":"01075656377",
    "location":"본관",
    "floor":"4",
    "room":"17",
    "seat":19
  },
  {
    "id":"ko000830",
    "name":"임연주",
    "birth":"940327",
    "phone":"01051398426",
    "location":"본관",
    "floor":"4",
    "room":"17",
    "seat":20
  },
  {
    "id":"ko000091",
    "name":"김승한",
    "birth":"840713",
    "phone":"01085358150",
    "location":"본관",
    "floor":"4",
    "room":"17",
    "seat":21
  },
  {
    "id":"ko001312",
    "name":"정윤경",
    "birth":"950516",
    "phone":"01086289035",
    "location":"본관",
    "floor":"4",
    "room":"17",
    "seat":22
  },
  {
    "id":"ko002199",
    "name":"김경혜",
    "birth":"890311",
    "phone":"01063285732",
    "location":"본관",
    "floor":"4",
    "room":"17",
    "seat":23
  },
  {
    "id":"ko000903",
    "name":"오민선",
    "birth":"970724",
    "phone":"01026314626",
    "location":"본관",
    "floor":"4",
    "room":"17",
    "seat":24
  },
  {
    "id":"ko002090",
    "name":"양경정",
    "birth":"950127",
    "phone":"01031337322",
    "location":"본관",
    "floor":"4",
    "room":"17",
    "seat":25
  },
  {
    "id":"ko001350",
    "name":"강성수",
    "birth":"920204",
    "phone":"01072775936",
    "location":"본관",
    "floor":"4",
    "room":"18",
    "seat":1
  },
  {
    "id":"ko001944",
    "name":"전인근",
    "birth":"830902",
    "phone":"01044253208",
    "location":"본관",
    "floor":"4",
    "room":"18",
    "seat":2
  },
  {
    "id":"ko000076",
    "name":"이창수",
    "birth":"960220",
    "phone":"01029807052",
    "location":"본관",
    "floor":"4",
    "room":"18",
    "seat":3
  },
  {
    "id":"ko000118",
    "name":"정현경",
    "birth":"860116",
    "phone":"01022633707",
    "location":"본관",
    "floor":"4",
    "room":"18",
    "seat":4
  },
  {
    "id":"ko000285",
    "name":"김성준",
    "birth":"941128",
    "phone":"01095415653",
    "location":"본관",
    "floor":"4",
    "room":"18",
    "seat":5
  },
  {
    "id":"ko002268",
    "name":"이한나",
    "birth":"940406",
    "phone":"01032235791",
    "location":"본관",
    "floor":"4",
    "room":"18",
    "seat":6
  },
  {
    "id":"ko001153",
    "name":"신연홍",
    "birth":"000515",
    "phone":"01043207079",
    "location":"본관",
    "floor":"4",
    "room":"18",
    "seat":7
  },
  {
    "id":"ko001402",
    "name":"김아영",
    "birth":"900125",
    "phone":"01052277126",
    "location":"본관",
    "floor":"4",
    "room":"18",
    "seat":8
  },
  {
    "id":"ko000773",
    "name":"정하나",
    "birth":"860713",
    "phone":"01092912558",
    "location":"본관",
    "floor":"4",
    "room":"18",
    "seat":9
  },
  {
    "id":"ko001378",
    "name":"원다솜",
    "birth":"971204",
    "phone":"01050315816",
    "location":"본관",
    "floor":"4",
    "room":"18",
    "seat":10
  },
  {
    "id":"ko001867",
    "name":"우정은",
    "birth":"920929",
    "phone":"01063156102",
    "location":"본관",
    "floor":"4",
    "room":"18",
    "seat":11
  },
  {
    "id":"ko000447",
    "name":"천지민",
    "birth":"821218",
    "phone":"01031370856",
    "location":"본관",
    "floor":"4",
    "room":"18",
    "seat":12
  },
  {
    "id":"ko001746",
    "name":"이승환",
    "birth":"930902",
    "phone":"01033136853",
    "location":"본관",
    "floor":"4",
    "room":"18",
    "seat":13
  },
  {
    "id":"ko001813",
    "name":"김우명",
    "birth":"840228",
    "phone":"01072554255",
    "location":"본관",
    "floor":"4",
    "room":"18",
    "seat":14
  },
  {
    "id":"ko002073",
    "name":"이성민",
    "birth":"740103",
    "phone":"01082135302",
    "location":"본관",
    "floor":"4",
    "room":"18",
    "seat":15
  },
  {
    "id":"ko002068",
    "name":"박주영",
    "birth":"910907",
    "phone":"01062285152",
    "location":"본관",
    "floor":"4",
    "room":"18",
    "seat":16
  },
  {
    "id":"ko001663",
    "name":"김가원",
    "birth":"951203",
    "phone":"01080107176",
    "location":"본관",
    "floor":"4",
    "room":"18",
    "seat":17
  },
  {
    "id":"ko001619",
    "name":"신현진",
    "birth":"881014",
    "phone":"01042009034",
    "location":"본관",
    "floor":"4",
    "room":"18",
    "seat":18
  },
  {
    "id":"ko001037",
    "name":"장애리",
    "birth":"880516",
    "phone":"01023247717",
    "location":"본관",
    "floor":"4",
    "room":"18",
    "seat":19
  },
  {
    "id":"ko000840",
    "name":"정소현",
    "birth":"961205",
    "phone":"01092541695",
    "location":"본관",
    "floor":"4",
    "room":"18",
    "seat":20
  },
  {
    "id":"ko000946",
    "name":"김성식",
    "birth":"880419",
    "phone":"01067290303",
    "location":"본관",
    "floor":"4",
    "room":"18",
    "seat":21
  },
  {
    "id":"ko000804",
    "name":"이은선",
    "birth":"900723",
    "phone":"01031852689",
    "location":"본관",
    "floor":"4",
    "room":"18",
    "seat":22
  },
  {
    "id":"ko001379",
    "name":"최정두",
    "birth":"770107",
    "phone":"01067008289",
    "location":"본관",
    "floor":"4",
    "room":"18",
    "seat":23
  },
  {
    "id":"ko000275",
    "name":"송지윤",
    "birth":"860126",
    "phone":"01071463004",
    "location":"본관",
    "floor":"4",
    "room":"18",
    "seat":24
  },
  {
    "id":"ko002187",
    "name":"박채영",
    "birth":"960801",
    "phone":"01033059608",
    "location":"본관",
    "floor":"4",
    "room":"18",
    "seat":25
  },
  {
    "id":"ko002308",
    "name":"한성찬",
    "birth":"861225",
    "phone":"01046141485",
    "location":"본관",
    "floor":"4",
    "room":"19",
    "seat":1
  },
  {
    "id":"ko000230",
    "name":"이세원",
    "birth":"990630",
    "phone":"01077643956",
    "location":"본관",
    "floor":"4",
    "room":"19",
    "seat":2
  },
  {
    "id":"ko000779",
    "name":"김현덕",
    "birth":"871219",
    "phone":"01027192346",
    "location":"본관",
    "floor":"4",
    "room":"19",
    "seat":3
  },
  {
    "id":"ko001819",
    "name":"박진솔",
    "birth":"970710",
    "phone":"01048933975",
    "location":"본관",
    "floor":"4",
    "room":"19",
    "seat":4
  },
  {
    "id":"ko000696",
    "name":"김명수",
    "birth":"781120",
    "phone":"01074842789",
    "location":"본관",
    "floor":"4",
    "room":"19",
    "seat":5
  },
  {
    "id":"ko000081",
    "name":"오수연",
    "birth":"000413",
    "phone":"01024654086",
    "location":"본관",
    "floor":"4",
    "room":"19",
    "seat":6
  },
  {
    "id":"ko001002",
    "name":"김민규",
    "birth":"850324",
    "phone":"01092650324",
    "location":"본관",
    "floor":"4",
    "room":"19",
    "seat":7
  },
  {
    "id":"ko000829",
    "name":"박건수",
    "birth":"971208",
    "phone":"01023438767",
    "location":"본관",
    "floor":"4",
    "room":"19",
    "seat":8
  },
  {
    "id":"ko000837",
    "name":"홍성환",
    "birth":"830530",
    "phone":"01044693222",
    "location":"본관",
    "floor":"4",
    "room":"19",
    "seat":9
  },
  {
    "id":"ko000309",
    "name":"임명숙",
    "birth":"800213",
    "phone":"01066487910",
    "location":"본관",
    "floor":"4",
    "room":"19",
    "seat":10
  },
  {
    "id":"ko000406",
    "name":"차계유",
    "birth":"940226",
    "phone":"01082632093",
    "location":"본관",
    "floor":"4",
    "room":"19",
    "seat":11
  },
  {
    "id":"ko000402",
    "name":"김준식",
    "birth":"940515",
    "phone":"01039198750",
    "location":"본관",
    "floor":"4",
    "room":"19",
    "seat":12
  },
  {
    "id":"ko001596",
    "name":"이종헌",
    "birth":"920622",
    "phone":"01041900622",
    "location":"본관",
    "floor":"4",
    "room":"19",
    "seat":13
  },
  {
    "id":"ko002121",
    "name":"김현정",
    "birth":"960106",
    "phone":"01026400953",
    "location":"본관",
    "floor":"4",
    "room":"19",
    "seat":14
  },
  {
    "id":"ko000296",
    "name":"오윤지",
    "birth":"960115",
    "phone":"01041228642",
    "location":"본관",
    "floor":"4",
    "room":"19",
    "seat":15
  },
  {
    "id":"ko000601",
    "name":"이세준",
    "birth":"921208",
    "phone":"01050196392",
    "location":"본관",
    "floor":"4",
    "room":"19",
    "seat":16
  },
  {
    "id":"ko000531",
    "name":"조아라",
    "birth":"000908",
    "phone":"01020390978",
    "location":"본관",
    "floor":"4",
    "room":"19",
    "seat":17
  },
  {
    "id":"ko000853",
    "name":"현상진",
    "birth":"910222",
    "phone":"01093362206",
    "location":"본관",
    "floor":"4",
    "room":"19",
    "seat":18
  },
  {
    "id":"ko000348",
    "name":"심재란",
    "birth":"880715",
    "phone":"01029923474",
    "location":"본관",
    "floor":"4",
    "room":"19",
    "seat":19
  },
  {
    "id":"ko001577",
    "name":"이현종",
    "birth":"890913",
    "phone":"01046346150",
    "location":"본관",
    "floor":"4",
    "room":"19",
    "seat":20
  },
  {
    "id":"ko001865",
    "name":"박부경",
    "birth":"780112",
    "phone":"01066262149",
    "location":"본관",
    "floor":"4",
    "room":"19",
    "seat":21
  },
  {
    "id":"ko000212",
    "name":"황재현",
    "birth":"731017",
    "phone":"01053997746",
    "location":"본관",
    "floor":"4",
    "room":"19",
    "seat":22
  },
  {
    "id":"ko002074",
    "name":"강준규",
    "birth":"930224",
    "phone":"01096696979",
    "location":"본관",
    "floor":"4",
    "room":"19",
    "seat":23
  },
  {
    "id":"ko000570",
    "name":"박정환",
    "birth":"710220",
    "phone":"01033711502",
    "location":"본관",
    "floor":"4",
    "room":"19",
    "seat":24
  },
  {
    "id":"ko000743",
    "name":"이경진",
    "birth":"900106",
    "phone":"01042899188",
    "location":"본관",
    "floor":"4",
    "room":"19",
    "seat":25
  },
  {
    "id":"ko000640",
    "name":"이지현",
    "birth":"890220",
    "phone":"01063741375",
    "location":"별관",
    "floor":"3",
    "room":"20",
    "seat":1
  },
  {
    "id":"ko001288",
    "name":"최윤형",
    "birth":"860910",
    "phone":"01038660929",
    "location":"별관",
    "floor":"3",
    "room":"20",
    "seat":2
  },
  {
    "id":"ko000264",
    "name":"정수아",
    "birth":"860209",
    "phone":"01066160209",
    "location":"별관",
    "floor":"3",
    "room":"20",
    "seat":3
  },
  {
    "id":"ko001531",
    "name":"김은숙",
    "birth":"761220",
    "phone":"01094442861",
    "location":"별관",
    "floor":"3",
    "room":"20",
    "seat":4
  },
  {
    "id":"ko000836",
    "name":"최지수",
    "birth":"850117",
    "phone":"01083568878",
    "location":"별관",
    "floor":"3",
    "room":"20",
    "seat":5
  },
  {
    "id":"ko001521",
    "name":"박미희",
    "birth":"950214",
    "phone":"01085673209",
    "location":"별관",
    "floor":"3",
    "room":"20",
    "seat":6
  },
  {
    "id":"ko000214",
    "name":"윤정근",
    "birth":"791230",
    "phone":"01025448259",
    "location":"별관",
    "floor":"3",
    "room":"20",
    "seat":7
  },
  {
    "id":"ko000458",
    "name":"조부명",
    "birth":"770210",
    "phone":"01053713439",
    "location":"별관",
    "floor":"3",
    "room":"20",
    "seat":8
  },
  {
    "id":"ko000020",
    "name":"고효경",
    "birth":"980812",
    "phone":"01087408904",
    "location":"별관",
    "floor":"3",
    "room":"20",
    "seat":9
  },
  {
    "id":"ko001913",
    "name":"나정미",
    "birth":"811201",
    "phone":"01088626201",
    "location":"별관",
    "floor":"3",
    "room":"20",
    "seat":10
  },
  {
    "id":"ko001765",
    "name":"김경혜",
    "birth":"940129",
    "phone":"01071344364",
    "location":"별관",
    "floor":"3",
    "room":"20",
    "seat":11
  },
  {
    "id":"ko000777",
    "name":"최진원",
    "birth":"970321",
    "phone":"01062376758",
    "location":"별관",
    "floor":"3",
    "room":"20",
    "seat":12
  },
  {
    "id":"ko002302",
    "name":"고현정",
    "birth":"960628",
    "phone":"01036946284",
    "location":"별관",
    "floor":"3",
    "room":"20",
    "seat":13
  },
  {
    "id":"ko002295",
    "name":"전여진",
    "birth":"000411",
    "phone":"01087344613",
    "location":"별관",
    "floor":"3",
    "room":"20",
    "seat":14
  },
  {
    "id":"ko002194",
    "name":"김수인",
    "birth":"930512",
    "phone":"01091566691",
    "location":"별관",
    "floor":"3",
    "room":"20",
    "seat":15
  },
  {
    "id":"ko001171",
    "name":"임정민",
    "birth":"990324",
    "phone":"01093450324",
    "location":"별관",
    "floor":"3",
    "room":"20",
    "seat":16
  },
  {
    "id":"ko000927",
    "name":"장청록",
    "birth":"910909",
    "phone":"01072048543",
    "location":"별관",
    "floor":"3",
    "room":"20",
    "seat":17
  },
  {
    "id":"ko001086",
    "name":"송하영",
    "birth":"971208",
    "phone":"01084109918",
    "location":"별관",
    "floor":"3",
    "room":"20",
    "seat":18
  },
  {
    "id":"ko001547",
    "name":"황보혜",
    "birth":"891114",
    "phone":"01041587501",
    "location":"별관",
    "floor":"3",
    "room":"20",
    "seat":19
  },
  {
    "id":"ko000188",
    "name":"백민형",
    "birth":"910809",
    "phone":"01083835625",
    "location":"별관",
    "floor":"3",
    "room":"20",
    "seat":20
  },
  {
    "id":"ko001400",
    "name":"백주윤",
    "birth":"970312",
    "phone":"01040580304",
    "location":"별관",
    "floor":"3",
    "room":"20",
    "seat":21
  },
  {
    "id":"ko000096",
    "name":"정미애",
    "birth":"870315",
    "phone":"01028826061",
    "location":"별관",
    "floor":"3",
    "room":"20",
    "seat":22
  },
  {
    "id":"ko001094",
    "name":"황혜현",
    "birth":"990519",
    "phone":"01099221338",
    "location":"별관",
    "floor":"3",
    "room":"20",
    "seat":23
  },
  {
    "id":"ko000801",
    "name":"황서현",
    "birth":"971031",
    "phone":"01032571338",
    "location":"별관",
    "floor":"3",
    "room":"20",
    "seat":24
  },
  {
    "id":"ko001550",
    "name":"박소현",
    "birth":"960405",
    "phone":"01032133961",
    "location":"별관",
    "floor":"3",
    "room":"20",
    "seat":25
  },
  {
    "id":"ko001234",
    "name":"송연주",
    "birth":"940114",
    "phone":"01074755809",
    "location":"별관",
    "floor":"4",
    "room":"21",
    "seat":1
  },
  {
    "id":"ko000951",
    "name":"범경주",
    "birth":"910213",
    "phone":"01065339715",
    "location":"별관",
    "floor":"4",
    "room":"21",
    "seat":2
  },
  {
    "id":"ko000952",
    "name":"조승희",
    "birth":"960628",
    "phone":"01055973401",
    "location":"별관",
    "floor":"4",
    "room":"21",
    "seat":3
  },
  {
    "id":"ko001511",
    "name":"신빛나",
    "birth":"950329",
    "phone":"01050173190",
    "location":"별관",
    "floor":"4",
    "room":"21",
    "seat":4
  },
  {
    "id":"ko001279",
    "name":"오서현",
    "birth":"020529",
    "phone":"01092981662",
    "location":"별관",
    "floor":"4",
    "room":"21",
    "seat":5
  },
  {
    "id":"ko000611",
    "name":"양서린",
    "birth":"060226",
    "phone":"01076316434",
    "location":"별관",
    "floor":"4",
    "room":"21",
    "seat":6
  },
  {
    "id":"ko000614",
    "name":"한이슬",
    "birth":"931224",
    "phone":"01038958508",
    "location":"별관",
    "floor":"4",
    "room":"21",
    "seat":7
  },
  {
    "id":"ko001176",
    "name":"유채은",
    "birth":"000908",
    "phone":"01075673285",
    "location":"별관",
    "floor":"4",
    "room":"21",
    "seat":8
  },
  {
    "id":"ko001277",
    "name":"김세영",
    "birth":"911116",
    "phone":"01047696248",
    "location":"별관",
    "floor":"4",
    "room":"21",
    "seat":9
  },
  {
    "id":"ko000576",
    "name":"김유창",
    "birth":"900530",
    "phone":"01023779629",
    "location":"별관",
    "floor":"4",
    "room":"21",
    "seat":10
  },
  {
    "id":"ko002072",
    "name":"신예린",
    "birth":"970602",
    "phone":"01088180116",
    "location":"별관",
    "floor":"4",
    "room":"21",
    "seat":11
  },
  {
    "id":"ko002273",
    "name":"김유경",
    "birth":"931215",
    "phone":"01073869215",
    "location":"별관",
    "floor":"4",
    "room":"21",
    "seat":12
  },
  {
    "id":"ko002059",
    "name":"명혜원",
    "birth":"941017",
    "phone":"01063156738",
    "location":"별관",
    "floor":"4",
    "room":"21",
    "seat":13
  },
  {
    "id":"ko001134",
    "name":"김효진",
    "birth":"921207",
    "phone":"01092372170",
    "location":"별관",
    "floor":"4",
    "room":"21",
    "seat":14
  },
  {
    "id":"ko001766",
    "name":"기민정",
    "birth":"001009",
    "phone":"01026340368",
    "location":"별관",
    "floor":"4",
    "room":"21",
    "seat":15
  },
  {
    "id":"ko001997",
    "name":"최서연",
    "birth":"980207",
    "phone":"01094099166",
    "location":"별관",
    "floor":"4",
    "room":"21",
    "seat":16
  },
  {
    "id":"ko001886",
    "name":"김예린",
    "birth":"980801",
    "phone":"01065304380",
    "location":"별관",
    "floor":"4",
    "room":"21",
    "seat":17
  },
  {
    "id":"ko001795",
    "name":"정한별",
    "birth":"991215",
    "phone":"01063646498",
    "location":"별관",
    "floor":"4",
    "room":"21",
    "seat":18
  },
  {
    "id":"ko001553",
    "name":"강정호",
    "birth":"980219",
    "phone":"01042118278",
    "location":"별관",
    "floor":"4",
    "room":"21",
    "seat":19
  },
  {
    "id":"ko002231",
    "name":"박수진",
    "birth":"800727",
    "phone":"01026210562",
    "location":"별관",
    "floor":"4",
    "room":"21",
    "seat":20
  },
  {
    "id":"ko002023",
    "name":"김현희",
    "birth":"730914",
    "phone":"01032596149",
    "location":"별관",
    "floor":"4",
    "room":"21",
    "seat":21
  },
  {
    "id":"ko000015",
    "name":"전관현",
    "birth":"911101",
    "phone":"01048017418",
    "location":"별관",
    "floor":"4",
    "room":"21",
    "seat":22
  },
  {
    "id":"ko000178",
    "name":"류경민",
    "birth":"050211",
    "phone":"01057143072",
    "location":"별관",
    "floor":"4",
    "room":"21",
    "seat":23
  },
  {
    "id":"ko000227",
    "name":"강도영",
    "birth":"790612",
    "phone":"01043919000",
    "location":"별관",
    "floor":"4",
    "room":"21",
    "seat":24
  },
  {
    "id":"ko000322",
    "name":"박근태",
    "birth":"960105",
    "phone":"01072464811",
    "location":"별관",
    "floor":"4",
    "room":"21",
    "seat":25
  },
  {
    "id":"ko000274",
    "name":"김성아",
    "birth":"881025",
    "phone":"01096155859",
    "location":"별관",
    "floor":"4",
    "room":"22",
    "seat":1
  },
  {
    "id":"ko000828",
    "name":"천정환",
    "birth":"760128",
    "phone":"01043009273",
    "location":"별관",
    "floor":"4",
    "room":"22",
    "seat":2
  },
  {
    "id":"ko000620",
    "name":"황유정",
    "birth":"950818",
    "phone":"01068137400",
    "location":"별관",
    "floor":"4",
    "room":"22",
    "seat":3
  },
  {
    "id":"ko001870",
    "name":"이희재",
    "birth":"890702",
    "phone":"01041138972",
    "location":"별관",
    "floor":"4",
    "room":"22",
    "seat":4
  },
  {
    "id":"ko001408",
    "name":"손형선",
    "birth":"950322",
    "phone":"01055585370",
    "location":"별관",
    "floor":"4",
    "room":"22",
    "seat":5
  },
  {
    "id":"ko000518",
    "name":"이성환",
    "birth":"940828",
    "phone":"01064321606",
    "location":"별관",
    "floor":"4",
    "room":"22",
    "seat":6
  },
  {
    "id":"ko000060",
    "name":"김혜진",
    "birth":"980421",
    "phone":"01041988014",
    "location":"별관",
    "floor":"4",
    "room":"22",
    "seat":7
  },
  {
    "id":"ko002114",
    "name":"이자은",
    "birth":"921126",
    "phone":"01040089220",
    "location":"별관",
    "floor":"4",
    "room":"22",
    "seat":8
  },
  {
    "id":"ko000169",
    "name":"홍선희",
    "birth":"870218",
    "phone":"01042814520",
    "location":"별관",
    "floor":"4",
    "room":"22",
    "seat":9
  },
  {
    "id":"ko001221",
    "name":"유시준",
    "birth":"940713",
    "phone":"01044171750",
    "location":"별관",
    "floor":"4",
    "room":"22",
    "seat":10
  },
  {
    "id":"ko000410",
    "name":"차수희",
    "birth":"960119",
    "phone":"01049007417",
    "location":"별관",
    "floor":"4",
    "room":"22",
    "seat":11
  },
  {
    "id":"ko001600",
    "name":"최다혜",
    "birth":"931009",
    "phone":"01096058405",
    "location":"별관",
    "floor":"4",
    "room":"22",
    "seat":12
  },
  {
    "id":"ko001034",
    "name":"이소연",
    "birth":"890302",
    "phone":"01063496836",
    "location":"별관",
    "floor":"4",
    "room":"22",
    "seat":13
  },
  {
    "id":"ko001484",
    "name":"양성진",
    "birth":"961005",
    "phone":"01062032017",
    "location":"별관",
    "floor":"4",
    "room":"22",
    "seat":14
  },
  {
    "id":"ko000307",
    "name":"강준구",
    "birth":"860429",
    "phone":"01051554809",
    "location":"별관",
    "floor":"4",
    "room":"22",
    "seat":15
  },
  {
    "id":"ko000224",
    "name":"조광현",
    "birth":"921107",
    "phone":"01053454312",
    "location":"별관",
    "floor":"4",
    "room":"22",
    "seat":16
  },
  {
    "id":"ko000917",
    "name":"김지수",
    "birth":"950926",
    "phone":"01062314421",
    "location":"별관",
    "floor":"4",
    "room":"22",
    "seat":17
  },
  {
    "id":"ko000805",
    "name":"이리나",
    "birth":"891109",
    "phone":"01050156371",
    "location":"별관",
    "floor":"4",
    "room":"22",
    "seat":18
  },
  {
    "id":"ko001116",
    "name":"최소리",
    "birth":"970115",
    "phone":"01092579783",
    "location":"별관",
    "floor":"4",
    "room":"22",
    "seat":19
  },
  {
    "id":"ko000192",
    "name":"서승희",
    "birth":"881011",
    "phone":"01065223533",
    "location":"별관",
    "floor":"4",
    "room":"22",
    "seat":20
  },
  {
    "id":"ko002087",
    "name":"서민희",
    "birth":"960402",
    "phone":"01062636018",
    "location":"별관",
    "floor":"4",
    "room":"22",
    "seat":21
  },
  {
    "id":"ko001650",
    "name":"강진주",
    "birth":"970101",
    "phone":"01099668753",
    "location":"별관",
    "floor":"4",
    "room":"22",
    "seat":22
  },
  {
    "id":"ko002251",
    "name":"장인영",
    "birth":"960701",
    "phone":"01050129795",
    "location":"별관",
    "floor":"4",
    "room":"22",
    "seat":23
  },
  {
    "id":"ko000941",
    "name":"김남희",
    "birth":"850611",
    "phone":"01042815343",
    "location":"별관",
    "floor":"4",
    "room":"22",
    "seat":24
  },
  {
    "id":"ko002215",
    "name":"백연경",
    "birth":"780326",
    "phone":"01096986765",
    "location":"별관",
    "floor":"4",
    "room":"22",
    "seat":25
  },
  {
    "id":"ko000097",
    "name":"문영란",
    "birth":"790828",
    "phone":"01090716005",
    "location":"별관",
    "floor":"4",
    "room":"23",
    "seat":1
  },
  {
    "id":"ko001391",
    "name":"최수진",
    "birth":"001027",
    "phone":"01085170682",
    "location":"별관",
    "floor":"4",
    "room":"23",
    "seat":2
  },
  {
    "id":"ko000078",
    "name":"최은혜",
    "birth":"960319",
    "phone":"01032022319",
    "location":"별관",
    "floor":"4",
    "room":"23",
    "seat":3
  },
  {
    "id":"ko000770",
    "name":"윤진아",
    "birth":"970414",
    "phone":"01062619706",
    "location":"별관",
    "floor":"4",
    "room":"23",
    "seat":4
  },
  {
    "id":"ko000653",
    "name":"장주수",
    "birth":"810320",
    "phone":"01071311945",
    "location":"별관",
    "floor":"4",
    "room":"23",
    "seat":5
  },
  {
    "id":"ko001829",
    "name":"김봉진",
    "birth":"890422",
    "phone":"01049285914",
    "location":"별관",
    "floor":"4",
    "room":"23",
    "seat":6
  },
  {
    "id":"ko001144",
    "name":"송시원",
    "birth":"871124",
    "phone":"01021271124",
    "location":"별관",
    "floor":"4",
    "room":"23",
    "seat":7
  },
  {
    "id":"ko000312",
    "name":"황수은",
    "birth":"990207",
    "phone":"01040760039",
    "location":"별관",
    "floor":"4",
    "room":"23",
    "seat":8
  },
  {
    "id":"ko001269",
    "name":"김보은",
    "birth":"930204",
    "phone":"01089092083",
    "location":"별관",
    "floor":"4",
    "room":"23",
    "seat":9
  },
  {
    "id":"ko000222",
    "name":"김지현",
    "birth":"901013",
    "phone":"01096986432",
    "location":"별관",
    "floor":"4",
    "room":"23",
    "seat":10
  },
  {
    "id":"ko002312",
    "name":"류지혜",
    "birth":"980105",
    "phone":"01077390155",
    "location":"별관",
    "floor":"4",
    "room":"23",
    "seat":11
  },
  {
    "id":"ko001071",
    "name":"윤민정",
    "birth":"930319",
    "phone":"01055355332",
    "location":"별관",
    "floor":"4",
    "room":"23",
    "seat":12
  },
  {
    "id":"ko002007",
    "name":"김판철",
    "birth":"910929",
    "phone":"01066217770",
    "location":"별관",
    "floor":"4",
    "room":"23",
    "seat":13
  },
  {
    "id":"ko000329",
    "name":"김대웅",
    "birth":"960527",
    "phone":"01093789605",
    "location":"별관",
    "floor":"4",
    "room":"23",
    "seat":14
  },
  {
    "id":"ko000432",
    "name":"김도담",
    "birth":"941104",
    "phone":"01038707960",
    "location":"별관",
    "floor":"4",
    "room":"23",
    "seat":15
  },
  {
    "id":"ko000995",
    "name":"이미진",
    "birth":"800515",
    "phone":"01025796379",
    "location":"별관",
    "floor":"4",
    "room":"23",
    "seat":16
  },
  {
    "id":"ko000877",
    "name":"채정민",
    "birth":"860117",
    "phone":"01041235825",
    "location":"별관",
    "floor":"4",
    "room":"23",
    "seat":17
  },
  {
    "id":"ko000243",
    "name":"조현아",
    "birth":"940617",
    "phone":"01066179479",
    "location":"별관",
    "floor":"4",
    "room":"23",
    "seat":18
  },
  {
    "id":"ko000145",
    "name":"김민형",
    "birth":"991202",
    "phone":"01066501267",
    "location":"별관",
    "floor":"4",
    "room":"23",
    "seat":19
  },
  {
    "id":"ko000273",
    "name":"권소진",
    "birth":"840615",
    "phone":"01046155375",
    "location":"별관",
    "floor":"4",
    "room":"23",
    "seat":20
  },
  {
    "id":"ko002145",
    "name":"권오일",
    "birth":"831123",
    "phone":"01063015072",
    "location":"별관",
    "floor":"4",
    "room":"23",
    "seat":21
  },
  {
    "id":"ko001442",
    "name":"안학수",
    "birth":"921226",
    "phone":"01064179033",
    "location":"별관",
    "floor":"4",
    "room":"23",
    "seat":22
  },
  {
    "id":"ko000665",
    "name":"양성수",
    "birth":"840514",
    "phone":"01051020973",
    "location":"별관",
    "floor":"4",
    "room":"23",
    "seat":23
  },
  {
    "id":"ko000790",
    "name":"서연옥",
    "birth":"940214",
    "phone":"01066362731",
    "location":"별관",
    "floor":"4",
    "room":"23",
    "seat":24
  },
  {
    "id":"ko001589",
    "name":"김유경",
    "birth":"961029",
    "phone":"01052609629",
    "location":"별관",
    "floor":"4",
    "room":"23",
    "seat":25
  },
  {
    "id":"ko000603",
    "name":"김시예",
    "birth":"960616",
    "phone":"01075877325",
    "location":"별관",
    "floor":"4",
    "room":"24",
    "seat":1
  },
  {
    "id":"ko000407",
    "name":"한갑수",
    "birth":"670510",
    "phone":"01052714710",
    "location":"별관",
    "floor":"4",
    "room":"24",
    "seat":2
  },
  {
    "id":"ko000382",
    "name":"제갈은정",
    "birth":"830821",
    "phone":"01095118092",
    "location":"별관",
    "floor":"4",
    "room":"24",
    "seat":3
  },
  {
    "id":"ko000303",
    "name":"박민예",
    "birth":"970804",
    "phone":"01062348604",
    "location":"별관",
    "floor":"4",
    "room":"24",
    "seat":4
  },
  {
    "id":"ko001359",
    "name":"방극수",
    "birth":"690127",
    "phone":"01098029895",
    "location":"별관",
    "floor":"4",
    "room":"24",
    "seat":5
  },
  {
    "id":"ko000088",
    "name":"한성진",
    "birth":"711001",
    "phone":"01027412800",
    "location":"별관",
    "floor":"4",
    "room":"24",
    "seat":6
  },
  {
    "id":"ko000436",
    "name":"최민준",
    "birth":"751229",
    "phone":"01091206968",
    "location":"별관",
    "floor":"4",
    "room":"24",
    "seat":7
  },
  {
    "id":"ko001557",
    "name":"전광진",
    "birth":"750904",
    "phone":"01048882253",
    "location":"별관",
    "floor":"4",
    "room":"24",
    "seat":8
  },
  {
    "id":"ko000710",
    "name":"최선녕",
    "birth":"820519",
    "phone":"01032469102",
    "location":"별관",
    "floor":"4",
    "room":"24",
    "seat":9
  },
  {
    "id":"ko001842",
    "name":"문정희",
    "birth":"760404",
    "phone":"01037703560",
    "location":"별관",
    "floor":"4",
    "room":"24",
    "seat":10
  },
  {
    "id":"ko001983",
    "name":"김수진",
    "birth":"820928",
    "phone":"01047674780",
    "location":"별관",
    "floor":"4",
    "room":"24",
    "seat":11
  },
  {
    "id":"ko002056",
    "name":"채성호",
    "birth":"841201",
    "phone":"01089985996",
    "location":"별관",
    "floor":"4",
    "room":"24",
    "seat":12
  },
  {
    "id":"ko001675",
    "name":"강다은",
    "birth":"010817",
    "phone":"01054939514",
    "location":"별관",
    "floor":"4",
    "room":"24",
    "seat":13
  },
  {
    "id":"ko002046",
    "name":"김수연",
    "birth":"020419",
    "phone":"01089549275",
    "location":"별관",
    "floor":"4",
    "room":"24",
    "seat":14
  }
]